~Version Information
VERS.                            2.0: CWLS Log ASCII STANDARD - VERSION 2.0
WRAP.                             NO: One line per depth step
~Well Information
STRT.SEC                      0.0000: START DEPTH
STOP.SEC                    300.0000: STOP DEPTH
STEP.SEC                      1.0000: STEP
NULL.                      -999.2500: NULL VALUE
COMP.                               : COMPANY
WELL.                               : WELL
FLD.                                : FIELD
LOC.                                : LOCATION
DATE.                Wed Sep 11 13-40-39 2024: LOG DATE
SECT.                               : SECTION
TOWN.                               : TOWNSHIP
RANG.                               : RANGE
OS.                                 : OTHER SERVICES
PDAT.FT                             : PERMANENT DATUM
EEL.FT                              : ELEVATION
LMF.FT                              : LOG MEASURED FROM
DMF.FT                              : DRILLING MEASURED FROM
EKB.FT                              : KB
EDF.FT                              : DF
EGL.FT                              : GL
DATE1.                              : DATE1
RUN1.                               : RUN NUMBER
TDD1.FT                             : DEPTH DRILLER
TDL1.FT                             : DEPTH LOGGER
BLI1.FT                             : BOTTOM LOGGED INTERVAL
TLI1.FT                             : TOP LOG INTERVAL
CDD1.IN_FT                          : CASING DRILLER
CDL1.FT                             : CASING LOGGER
BS1.IN                              : BIT SIZE
DFT1.                               : TYPE FLUID IN HOLE
DFDV1.GM/C3_CP                      : DENSITY/VISCOSITY
DFPL1.C3                            : PH/FLUID LOSS
MSS1.                               : SOURCE OF SAMPLE
RMT1.OHHM_DEGF                      : RM@MEASURED TEMP
RMFT1.OHMM_DEGF                     : RMF@MEASURED TEMP
RMCT1.OHMM_DEGF                     : RMC@MEASURED TEMP
RMFS1.                              : SOURCE OF RMF/RMC
RMBT1.OHMM_DEGF                     : RM@BHT
TCS1.                               : TIME CIRCULATION STOPPED
TLOB1.                              : TIME LOGGER ON BOTTOM
BHT1.DEGF                           : MAXIMUM RECORDED TEMPERATURE
LUN1.                               : EQUIPMENT NUMBER
LUL1.                               : LOCATION
ENGI1.                              : RECORDED BY
WITN1.                              : WITNESSED BY
COMW.                               : Common Well Name
~Curve Information
TIME.SEC                 0 000 00 00: Elapsed Time
LSPD.M/MIN                         0: Line Speed
LTEN.LB                            0: Surface Line Tension
GR.GAPI                            0: Gamma Ray
CCL.                               0: Casing Collar Locator
QP.PSI                             0: Quartz Pressure
TEMP.DEGC                          0: Downhole Temperature
CWH.                               0: Capacitance Water Holdup
CWHC.CPS                           0: CWH Counts
ILS.RPS                            0: Flowmeter
QPSG.                              0: Specific Gravity from QP
CFS.RPS                            0: Flowmeter
FDIDEN.G/CC                        0: FDI Fluid Density
~Parameter Information
~A  TIME       LSPD        LTEN         GR         CCL          QP         TEMP        CWH         CWHC        ILS         QPSG        CFS        FDIDEN   
     0.0000      0.0000    612.6760   -999.2500   -999.2500   -999.2500   -999.2500   -999.2500   -999.2500   -999.2500      0.0000   -999.2500   -999.2500
     1.0000      0.0000    607.7510   -999.2500  31825.4746   2446.6812     80.4689      0.3203  31755.7207   -999.2500      0.0000   -999.2500   -999.2500
     2.0000      0.0000    611.6910   -999.2500  31829.8340   2446.6768     80.4550      0.3225  31738.2813   -999.2500      0.0037      1.6408   -999.2500
     3.0000      0.0000    610.7060   -999.2500  31827.0605   2446.6843     80.4550      0.3251  31717.9355   -999.2500      0.0023      1.6572   -999.2500
     4.0000      0.0000    605.7809     52.4094  31829.8340   2446.6787     80.4639      0.3197  31760.4766      1.1517     -0.0025      1.6017   -999.2500
     5.0000      0.0000    614.6460     46.0581  31819.6621   2446.6821     80.4639      0.3239  31727.1836      1.1898      0.0132      1.5848   -999.2500
     6.0000      0.0000    611.6910     41.0341  31825.4746   2446.6902     80.4689      0.3247  31720.8418      1.2137      0.0039      1.6200      0.8407
     7.0000      0.0000    604.7959     43.2384  31829.8340   2446.6855     80.4875      0.3225  31738.2813      1.2094      0.0054      1.7454      0.8402
     8.0000      0.0000    608.7360     45.5623  31822.7910   2446.6948     80.4968      0.3191  31764.4395      1.2216      0.0023      1.8287      0.8406
     9.0000      0.0000    608.7360     49.1909  31819.6621   2446.6875     80.4639      0.3225  31738.2813      1.2327     -0.0065      1.8065      0.8414
    10.0000      0.0000    605.7809     51.1764  31829.8340   2446.6892     80.4993      0.3211  31749.3789      1.2607      0.0045      1.7198      0.8411
    11.0000      0.0000    610.7060     46.4847  31823.7305   2446.6914     80.4745      0.3194  31762.6953      1.2696      0.0051      1.6671      0.8412
    12.0000      0.0000    611.6910     43.9414  31825.4746   2446.6936     80.4689      0.3191  31764.4395      1.2974     -0.0056      1.6285      0.8404
    13.0000      0.0000    606.7659     42.9837  31827.0605   2446.6865     80.4550      0.3186  31768.7988      1.2960     -0.0054      1.5940      0.8410
    14.0000      0.0000    610.7060     40.7400  31819.6621   2446.6890     80.4550      0.3173  31778.9707      1.2902      0.0065      1.5392      0.8421
    15.0000      0.0000    612.6760     39.8448  31827.0605   2446.6921     80.4875      0.3160  31789.1445      1.2733      0.0062      1.5206      0.8401
    16.0000      0.0000    605.7809     40.5795  31825.4746   2446.6943     80.4775      0.3237  31728.8906      1.2609      0.0034      1.5560      0.8411
    17.0000      0.0000    612.6760     43.3731  31825.4746   2446.6951     80.4968      0.3247  31720.8418      1.2382      0.0101      1.5639      0.8403
    18.0000      0.0000    612.6760     49.2007  31829.8340   2446.7031     80.4875      0.3238  31728.1094      1.2175      0.0115      1.5611      0.8410
    19.0000      0.0000    605.7809     47.3861  31819.6621   2446.7051     80.4875      0.3186  31768.7988      1.1991     -0.0045      1.5440      0.8405
    20.0000      0.0000    612.6760     46.1431  31815.9629   2446.6992     80.4550      0.3277  31697.5918      1.2056      0.0039      1.5671      0.8408
    21.0000      0.0000    611.6910     47.5453  31819.6621   2446.7085     80.4639      0.3282  31693.8926      1.2298      0.0127      1.5143      0.8405
    22.0000      0.0000    607.7510     42.8953  31829.8340   2446.7102     80.4550      0.3212  31748.4531      1.2242      0.0042      1.5190      0.8417
    23.0000      0.0000    611.6910     44.2290  31819.6621   2446.7122     80.4550      0.3329  31656.9004      1.2063      0.0101      1.5832      0.8408
    24.0000      0.0000    607.7510     49.9437  31825.4746   2446.7190     80.4689      0.3236  31729.5625      1.2116      0.0104      1.6472      0.8399
    25.0000      0.0000    606.7659     50.1421  31822.7910   2446.7212     80.4968      0.3191  31764.4395      1.2311     -0.0025      1.6978      0.8413
    26.0000      0.0000    604.7959     48.2593  31823.7305   2446.7168     80.4875      0.3277  31697.5918      1.2371     -0.0191      1.6538      0.8427
    27.0000      0.0000    608.7360     50.5917  31829.8340   2446.7046     80.4875      0.3277  31697.5918      1.2156     -0.0031      1.6608      0.8403
    28.0000      0.0000    602.8259     48.7370  31829.8340   2446.7141     80.4550      0.3277  31697.5918      1.2262      0.0110      1.4854      0.8408
    29.0000      0.0000    603.8109     44.0399  31829.8340   2446.7141     80.4875      0.3277  31697.5918      1.2238      0.0028      1.4083      0.8401
    30.0000      0.0000    607.7510     42.4818  31827.0605   2446.7166     80.4875      0.3316  31667.0742      1.2339      0.0056      1.3936      0.8405
    31.0000      0.0000    600.8559     45.7187  31816.7559   2446.7190     80.4775      0.3297  31681.9414      1.2123      0.0039      1.5141      0.8422
    32.0000      0.0000    607.7510     45.3180  31825.4746   2446.7200     80.4475      0.3213  31747.6719      1.2041     -0.0065      1.6189      0.8416
    33.0000      0.0000    607.7510     37.3676  31819.6621   2446.7134     80.4875      0.3303  31677.2461      1.2057     -0.0037      1.6859      0.8417
    34.0000      0.0000    603.8109     40.1661  31829.8340   2446.7168     80.4550      0.3225  31738.2813      1.1940      0.0062      1.7368      0.8406
    35.0000      0.0000    608.7360     44.1425  31819.6621   2446.7188     80.4550      0.3303  31677.2461      1.2031      0.0093      1.7225      0.8403
    36.0000      0.0000    607.7510     50.1820  31827.0605   2446.7249     80.4875      0.3212  31748.4531      1.2203     -0.0146      1.6987      0.8427
    37.0000      0.0000    606.7659     55.7519  31819.6621   2446.7061     80.4875      0.3212  31748.4531      1.2392     -0.0031      1.6261      0.8410
    38.0000      0.0000    612.6760     52.1792  31819.6621   2446.7222     80.4639      0.3267  31704.9902      1.2404      0.0194      1.6249      0.8425
    39.0000      0.0000    610.7060     41.8588  31829.8340   2446.7229     80.4550      0.3238  31728.1094      1.2588     -0.0006      1.5758      0.8460
    40.0000      0.0000    610.7060     35.7729  31825.4746   2446.7217     80.4689      0.3303  31677.2461      1.2519     -0.0056      1.5701      0.8473
    41.0000      0.0000    611.6910     40.2846  31815.9629   2446.7180     80.4875      0.3264  31707.7637      1.2618     -0.0079      1.5885      0.8450
    42.0000      0.0000    611.6910     40.9234  31829.8340   2446.7148     80.4875      0.3186  31768.7988      1.2558     -0.0037      1.5627      0.8436
    43.0000      0.0000    609.7209     43.6524  31819.6621   2446.7148     80.4639      0.3239  31727.1836      1.2695     -0.0149      1.6314      0.8407
    44.0000      0.0000    609.7209     48.3427  31829.8340   2446.7019     80.4993      0.3197  31760.4766      1.2637      0.0020      1.6332      0.8409
    45.0000      0.0000    611.6910     48.5723  31829.8340   2446.7166     80.4875      0.3199  31758.6270      1.2395      0.0217      1.6880      0.8428
    46.0000      0.0000    608.7360     46.8363  31819.6621   2446.7207     80.4550      0.3199  31758.6270      1.2394      0.0059      1.6507      0.8417
    47.0000      0.0000    611.6910     42.0812  31829.8340   2446.7217     80.4875      0.3212  31748.4531      1.2509      0.0065      1.5506      0.8414
    48.0000      0.0000    612.6760     39.9394  31827.0605   2446.7263     80.4875      0.3290  31687.4180      1.2656     -0.0003      1.4423      0.8430
    49.0000      0.0000    609.7209     43.2422  31825.4746   2446.7214     80.4775      0.3201  31757.0605      1.2474      0.0008      1.4194      0.8426
    50.0000      0.0000    611.6910     40.0765  31819.6621   2446.7271     80.4550      0.3225  31738.2813      1.2218     -0.0096      1.4946      0.8449
    51.0000      0.0000    612.6760     37.8083  31819.6621   2446.7131     80.4550      0.3290  31687.4180      1.2158     -0.0048      1.6079      0.8463
