~Version Information
VERS.                            2.0: CWLS Log ASCII STANDARD - VERSION 2.0
WRAP.                             NO: One line per depth step
~Well Information
STRT.SEC                      0.0000: START DEPTH
STOP.SEC                    300.0000: STOP DEPTH
STEP.SEC                      1.0000: STEP
NULL.                      -999.2500: NULL VALUE
COMP.                               : COMPANY
WELL.                               : WELL
FLD.                                : FIELD
LOC.                                : LOCATION
DATE.                Wed Sep 11 13-40-39 2024: LOG DATE
SECT.                               : SECTION
TOWN.                               : TOWNSHIP
RANG.                               : RANGE
OS.                                 : OTHER SERVICES
PDAT.FT                             : PERMANENT DATUM
EEL.FT                              : ELEVATION
LMF.FT                              : LOG MEASURED FROM
DMF.FT                              : DRILLING MEASURED FROM
EKB.FT                              : KB
EDF.FT                              : DF
EGL.FT                              : GL
DATE1.                              : DATE1
RUN1.                               : RUN NUMBER
TDD1.FT                             : DEPTH DRILLER
TDL1.FT                             : DEPTH LOGGER
BLI1.FT                             : BOTTOM LOGGED INTERVAL
TLI1.FT                             : TOP LOG INTERVAL
CDD1.IN_FT                          : CASING DRILLER
CDL1.FT                             : CASING LOGGER
BS1.IN                              : BIT SIZE
DFT1.                               : TYPE FLUID IN HOLE
DFDV1.GM/C3_CP                      : DENSITY/VISCOSITY
DFPL1.C3                            : PH/FLUID LOSS
MSS1.                               : SOURCE OF SAMPLE
RMT1.OHHM_DEGF                      : RM@MEASURED TEMP
RMFT1.OHMM_DEGF                     : RMF@MEASURED TEMP
RMCT1.OHMM_DEGF                     : RMC@MEASURED TEMP
RMFS1.                              : SOURCE OF RMF/RMC
RMBT1.OHMM_DEGF                     : RM@BHT
TCS1.                               : TIME CIRCULATION STOPPED
TLOB1.                              : TIME LOGGER ON BOTTOM
BHT1.DEGF                           : MAXIMUM RECORDED TEMPERATURE
LUN1.                               : EQUIPMENT NUMBER
LUL1.                               : LOCATION
ENGI1.                              : RECORDED BY
WITN1.                              : WITNESSED BY
COMW.                               : Common Well Name
~Curve Information
TIME.SEC                 0 000 00 00: Elapsed Time
LSPD.M/MIN                         0: Line Speed
LTEN.LB                            0: Surface Line Tension
GR.GAPI                            0: Gamma Ray
CCL.                               0: Casing Collar Locator
QP.PSI                             0: Quartz Pressure
TEMP.DEGC                          0: Downhole Temperature
CWH.                               0: Capacitance Water Holdup
CWHC.CPS                           0: CWH Counts
ILS.RPS                            0: Flowmeter
QPSG.                              0: Specific Gravity from QP
CFS.RPS                            0: Flowmeter
FDIDEN.G/CC                        0: FDI Fluid Density
~Parameter Information
~A  TIME       LSPD        LTEN         GR         CCL          QP         TEMP        CWH         CWHC        ILS         QPSG        CFS        FDIDEN   
# ...
   104.0000      0.0000    611.6910     36.6788  31815.9629   2446.7456     80.4875      0.3277  31697.5918      1.2351     -0.0011      1.5636      0.8460
   105.0000      0.0000    612.6760     39.2145  31816.7559   2446.7407     80.4475      0.3237  31728.8906      1.2434      0.0101      1.4376      0.8449
   106.0000      0.0000    612.6760     44.6715  31819.6621   2446.7544     80.4550      0.3251  31717.9355      1.2390     -0.0186      1.4419      0.8419
   107.0000      0.0000    612.6760     46.0357  31829.8340   2446.7246     80.4875      0.3264  31707.7637      1.2245     -0.0051      1.5468      0.8431
   108.0000      0.0000    613.6610     45.4536  31819.6621   2446.7500     80.4550      0.3225  31738.2813      1.2305      0.0310      1.6615      0.8454
   109.0000      0.0000    613.6610     43.8427  31827.0605   2446.7515     80.4550      0.3212  31748.4531      1.2319     -0.0138      1.6439      0.8448
   110.0000      0.0000    612.6760     38.3044  31819.6621   2446.7380     80.4639      0.3225  31738.2813      1.2318      0.0031      1.6644      0.8437
   111.0000      0.0000    613.6610     38.5617  31829.8340   2446.7542     80.4875      0.3264  31707.7637      1.2113     -0.0025      1.6211      0.8427
   112.0000      0.0000    613.6610     43.7590  31816.7559   2446.7358     80.4689      0.3203  31755.7207      1.2156      0.0028      1.6281      0.8418
   113.0000      0.0000    611.6910     43.4317  31825.4746   2446.7566     80.4689      0.3203  31755.7207      1.2458      0.0163      1.5227      0.8421
   114.0000      0.0000    613.6610     40.1685  31819.6621   2446.7500     80.4745      0.3272  31701.6602      1.2807     -0.0141      1.4570      0.8418
   115.0000      0.0000    614.6460     40.1170  31819.6621   2446.7444     80.4639      0.3324  31660.5996      1.2706     -0.0104      1.5385      0.8411
   116.0000      0.0000    612.6760     43.0191  31825.4746   2446.7410     80.4689      0.3336  31651.0879      1.2689     -0.0141      1.6275      0.8413
   117.0000      0.0000    614.6460     46.3760  31829.8340   2446.7322     80.4875      0.3238  31728.1094      1.2544      0.0101      1.7618      0.8408
   118.0000      0.0000    614.6460     51.7969  31829.8340   2446.7498     80.4875      0.3251  31717.9355      1.2631      0.0375      1.7108      0.8418
   119.0000      0.0000    613.6610     55.4048  31819.6621   2446.7646     80.4550      0.3225  31738.2813      1.2571     -0.0008      1.7643      0.8405
   120.0000      0.0061    614.6460     49.3166  31815.9629   2446.7490     80.4875      0.3212  31748.4531      1.2273     -0.0051      1.6738      0.8409
   121.0000      0.0061    612.6760     39.9579  31825.4746   2446.7603     80.4689      0.3169  31781.8770      1.2019     -0.0006      1.6566      0.8403
   122.0000      0.0061    613.6610     39.9197  31834.1934   2446.7485     80.4475      0.3201  31757.0605      1.2297     -0.0062      1.6594      0.8398
   123.0000      0.0061    615.6310     46.2721  31829.8340   2446.7549     80.4875      0.3173  31778.9707      1.2198      0.0082      1.7162      0.8400
   124.0000      0.0000    615.6310     46.4787  31819.6621   2446.7556     80.4875      0.3199  31758.6270      1.2312      0.0113      1.6756      0.8409
   125.0000      0.0000    615.6310     43.4356  31827.0605   2446.7646     80.4875      0.3199  31758.6270      1.2038      0.0121      1.5625      0.8413
   126.0000      0.0000    615.6310     48.9889  31819.6621   2446.7661     80.4550      0.3264  31707.7637      1.2243     -0.0065      1.5821      0.8410
   127.0000      0.0000    616.6160     51.2385  31829.8340   2446.7590     80.4639      0.3225  31738.2813      1.2545     -0.0062      1.6733      0.8409
   128.0000      0.0000    616.6160     48.9639  31829.8340   2446.7607     80.4875      0.3199  31758.6270      1.2458     -0.0006      1.7363      0.8409
   129.0000      0.0000    617.6010     52.1154  31834.1934   2446.7585     80.4689      0.3214  31747.0000      1.2422      0.0130      1.6593      0.8417
   130.0000      0.0000    615.6310     47.1591  31813.4023   2446.7720     80.4689      0.3214  31747.0000      1.2577      0.0068      1.6394      0.8420
   131.0000      0.0000    615.6310     40.4169  31819.6621   2446.7644     80.4875      0.3212  31748.4531      1.2685      0.0079      1.6129      0.8414
   132.0000      0.0000    617.6010     39.6122  31819.6621   2446.7788     80.4993      0.3182  31771.5723      1.2604      0.0180      1.5537      0.8418
   133.0000      0.0000    613.6610     42.3700  31829.8340   2446.7800     80.4875      0.3212  31748.4531      1.2726      0.0034      1.5475      0.8418
   134.0000      0.0000    616.6160     42.0745  31819.6621   2446.7817     80.4550      0.3225  31738.2813      1.2935      0.0048      1.5522      0.8410
   135.0000      0.0000    617.6010     40.0727  31829.8340   2446.7842     80.4550      0.3290  31687.4180      1.2990     -0.0118      1.5720      0.8422
   136.0000      0.0000    614.6460     42.9902  31819.6621   2446.7715     80.4550      0.3251  31717.9355      1.3096      0.0020      1.5609      0.8419
   137.0000      0.0000    617.6010     47.1304  31822.7910   2446.7859     80.4968      0.3292  31685.9648      1.2979      0.0121      1.6083      0.8412
   138.0000      0.0000    617.6010     48.1178  31825.4746   2446.7820     80.4775      0.3201  31757.0605      1.2972     -0.0051      1.6098      0.8405
   139.0000      0.0000    616.6160     46.4235  31829.8340   2446.7815     80.4550      0.3160  31789.1445      1.2891      0.0084      1.6060      0.8415
   140.0000      0.0000    618.5860     45.6562  31819.6621   2446.7893     80.4875      0.3212  31748.4531      1.2618      0.0104      1.5645      0.8421
   141.0000      0.0000    617.6010     45.9352  31829.8340   2446.7905     80.4875      0.3225  31738.2813      1.2498      0.0028      1.5190      0.8422
   142.0000      0.0000    617.6010     48.1357  31827.0605   2446.7917     80.4550      0.3251  31717.9355      1.2487      0.0048      1.5026      0.8412
   143.0000      0.0000    618.5860     45.9485  31819.6621   2446.7947     80.4639      0.3211  31749.3789      1.2568     -0.0042      1.4652      0.8417
   144.0000      0.0000    617.6010     40.4621  31825.4746   2446.7881     80.4968      0.3203  31755.7207      1.2446     -0.0048      1.5126      0.8425
   145.0000      0.0000    616.6160     39.6913  31825.4746   2446.7905     80.4968      0.3203  31755.7207      1.2448      0.0011      1.5052      0.8419
   146.0000      0.0000    617.6010     40.5321  31829.8340   2446.7891     80.4550      0.3173  31778.9707      1.2482      0.0079      1.6345      0.8429
   147.0000      0.0000    617.6010     44.1216  31815.9629   2446.7974     80.4875      0.3290  31687.4180      1.2391      0.0118      1.7064      0.8418
   148.0000      0.0000    616.6160     46.7372  31819.6621   2446.7993     80.4639      0.3168  31782.6699      1.2236      0.0042      1.6938      0.8417
   149.0000      0.0000    618.5860     42.7312  31819.6621   2446.8010     80.4550      0.3199  31758.6270      1.2147      0.0028      1.6371      0.8415
   150.0000      0.0000    618.5860     38.9659  31819.6621   2446.8018     80.4993      0.3239  31727.1836      1.2234     -0.0222      1.6759      0.8413
   151.0000      0.0000    616.6160     40.4743  31829.8340   2446.7817     80.4550      0.3199  31758.6270      1.2522     -0.0155      1.7561      0.8411
   152.0000      0.0000    617.6010     45.7561  31829.8340   2446.7883     80.4550      0.3225  31738.2813      1.2498      0.0284      1.7451      0.8422
   153.0000      0.0000    618.5860     44.6332  31822.7910   2446.8064     80.4689      0.3191  31764.4395      1.2390      0.0130      1.7181      0.8414
   154.0000      0.0000    616.6160     42.7987  31822.7910   2446.7996     80.4968      0.3258  31712.1230      1.2437     -0.0327      1.6480      0.8415
   155.0000      0.0000    616.6160     43.0770  31819.6621   2446.7781     80.4639      0.3182  31771.5723      1.2353     -0.0237      1.6613      0.8415
