~Version Information
VERS.                            2.0: CWLS Log ASCII STANDARD - VERSION 2.0
WRAP.                             NO: One line per depth step
~Well Information
STRT.SEC                      0.0000: START DEPTH
STOP.SEC                    300.0000: STOP DEPTH
STEP.SEC                      1.0000: STEP
NULL.                      -999.2500: NULL VALUE
COMP.                               : COMPANY
WELL.                               : WELL
FLD.                                : FIELD
LOC.                                : LOCATION
DATE.                Wed Sep 11 13-40-39 2024: LOG DATE
SECT.                               : SECTION
TOWN.                               : TOWNSHIP
RANG.                               : RANGE
OS.                                 : OTHER SERVICES
PDAT.FT                             : PERMANENT DATUM
EEL.FT                              : ELEVATION
LMF.FT                              : LOG MEASURED FROM
DMF.FT                              : DRILLING MEASURED FROM
EKB.FT                              : KB
EDF.FT                              : DF
EGL.FT                              : GL
DATE1.                              : DATE1
RUN1.                               : RUN NUMBER
TDD1.FT                             : DEPTH DRILLER
TDL1.FT                             : DEPTH LOGGER
BLI1.FT                             : BOTTOM LOGGED INTERVAL
TLI1.FT                             : TOP LOG INTERVAL
CDD1.IN_FT                          : CASING DRILLER
CDL1.FT                             : CASING LOGGER
BS1.IN                              : BIT SIZE
DFT1.                               : TYPE FLUID IN HOLE
DFDV1.GM/C3_CP                      : DENSITY/VISCOSITY
DFPL1.C3                            : PH/FLUID LOSS
MSS1.                               : SOURCE OF SAMPLE
RMT1.OHHM_DEGF                      : RM@MEASURED TEMP
RMFT1.OHMM_DEGF                     : RMF@MEASURED TEMP
RMCT1.OHMM_DEGF                     : RMC@MEASURED TEMP
RMFS1.                              : SOURCE OF RMF/RMC
RMBT1.OHMM_DEGF                     : RM@BHT
TCS1.                               : TIME CIRCULATION STOPPED
TLOB1.                              : TIME LOGGER ON BOTTOM
BHT1.DEGF                           : MAXIMUM RECORDED TEMPERATURE
LUN1.                               : EQUIPMENT NUMBER
LUL1.                               : LOCATION
ENGI1.                              : RECORDED BY
WITN1.                              : WITNESSED BY
COMW.                               : Common Well Name
~Curve Information
TIME.SEC                 0 000 00 00: Elapsed Time
LSPD.M/MIN                         0: Line Speed
LTEN.LB                            0: Surface Line Tension
GR.GAPI                            0: Gamma Ray
CCL.                               0: Casing Collar Locator
QP.PSI                             0: Quartz Pressure
TEMP.DEGC                          0: Downhole Temperature
CWH.                               0: Capacitance Water Holdup
CWHC.CPS                           0: CWH Counts
ILS.RPS                            0: Flowmeter
QPSG.                              0: Specific Gravity from QP
CFS.RPS                            0: Flowmeter
FDIDEN.G/CC                        0: FDI Fluid Density
~Parameter Information
~A  TIME       LSPD        LTEN         GR         CCL          QP         TEMP        CWH         CWHC        ILS         QPSG        CFS        FDIDEN   
# ...
   260.0000      0.0000    614.6460     42.5853  31829.8340   2446.9141     80.4993      0.3267  31704.9902      1.2312      0.0214      1.8210      0.8409
   261.0000      0.0000    614.6460     44.3060  31819.6621   2446.9141     80.4993      0.3182  31771.5723      1.2274     -0.0146      1.8836      0.8411
   262.0000      0.0000    613.6610     44.3188  31819.6621   2446.9014     80.4875      0.3199  31758.6270      1.2341     -0.0166      1.8538      0.8411
   263.0000      0.0000    616.6160     42.4946  31829.8340   2446.8997     80.4875      0.3225  31738.2813      1.2305     -0.0008      1.6998      0.8412
   264.0000      0.0000    614.6460     39.9981  31827.0605   2446.9006     80.4550      0.3173  31778.9707      1.1981      0.0138      1.6358      0.8405
   265.0000      0.0000    615.6310     41.9600  31825.4746   2446.9116     80.4775      0.3201  31757.0605      1.2032      0.0073      1.6192      0.8413
   266.0000      0.0000    616.6160     43.3347  31825.4746   2446.9070     80.4775      0.3177  31775.8418      1.1936     -0.0161      1.5328      0.8403
   267.0000      0.0000    614.6460     43.0768  31819.6621   2446.8977     80.4875      0.3264  31707.7637      1.1834     -0.0017      1.4502      0.8412
   268.0000      0.0000    617.6010     48.3343  31819.6621   2446.9055     80.4550      0.3199  31758.6270      1.1481      0.0268      1.4873      0.8407
   269.0000      0.0000    616.6160     46.9556  31827.0605   2446.9209     80.4875      0.3238  31728.1094      1.1433      0.0180      1.5902      0.8410
   270.0000      0.0000    615.6310     42.5963  31819.6621   2446.9211     80.4550      0.3199  31758.6270      1.1626     -0.0251      1.6174      0.8411
   271.0000      0.0000    615.6310     41.9776  31815.9629   2446.8992     80.4875      0.3199  31758.6270      1.1909     -0.0231      1.5720      0.8408
   272.0000      0.0000    614.6460     44.0670  31819.6621   2446.9011     80.4639      0.3239  31727.1836      1.2095      0.0211      1.5532      0.8417
   273.0000      0.0000    613.6610     45.6590  31816.7559   2446.9175     80.4689      0.3381  31616.2109      1.2175      0.0065      1.5100      0.8422
   274.0000      0.0000    613.6610     41.5761  31825.4746   2446.9067     80.4689      0.3236  31729.5625      1.2499      0.0104      1.4515      0.8418
   275.0000      0.0000    612.6760     47.6340  31827.0605   2446.9265     80.4550      0.3225  31738.2813      1.2701      0.0068      1.4103      0.8423
   276.0000      0.0000    612.6760     48.9161  31827.0605   2446.9126     80.4875      0.3225  31738.2813      1.2826      0.0020      1.4632      0.8417
   277.0000      0.0000    611.6910     44.5518  31819.6621   2446.9282     80.4639      0.3197  31760.4766      1.2744      0.0180      1.5637      0.8427
   278.0000      0.0000    610.7060     44.8826  31829.8340   2446.9282     80.4550      0.3264  31707.7637      1.2457     -0.0079      1.6769      0.8423
   279.0000      0.0000    610.7060     47.5545  31819.6621   2446.9214     80.4875      0.3212  31748.4531      1.2021      0.0189      1.6774      0.8414
   280.0000      0.0000    611.6910     45.3975  31829.8340   2446.9446     80.4875      0.3225  31738.2813      1.1829      0.0256      1.6808      0.8416
   281.0000      0.0000    611.6910     44.3602  31822.7910   2446.9436     80.4689      0.3225  31738.2813      1.1910     -0.0082      1.7647      0.8416
   282.0000      0.0000    612.6760     44.3204  31825.4746   2446.9375     80.4775      0.3261  31710.1113      1.1588     -0.0130      1.8499      0.8418
   283.0000      0.0000    618.5860     44.5555  31829.8340   2446.9324     80.4875      0.3173  31778.9707      1.1425      0.0141      1.7778      0.8417
   284.0000      0.0000    613.6610     45.8585  31819.6621   2446.9497     80.4550      0.3225  31738.2813      1.1671      0.0200      1.5614      0.8409
   285.0000      0.0000    612.6760     48.4396  31829.8340   2446.9497     80.4550      0.3199  31758.6270      1.2073      0.0166      1.5089      0.8416
   286.0000      0.0000    616.6160     47.8785  31819.6621   2446.9641     80.4875      0.3277  31697.5918      1.2389     -0.0087      1.5388      0.8408
   287.0000      0.0000    614.6460     43.9026  31827.0605   2446.9421     80.4875      0.3186  31768.7988      1.2298     -0.0076      1.6404      0.8409
   288.0000      0.0000    615.6310     42.8045  31819.6621   2446.9575     80.4875      0.3212  31748.4531      1.2242      0.0276      1.7003      0.8414
   289.0000      0.0000    615.6310     45.1478  31829.8340   2446.9661     80.4639      0.3197  31760.4766      1.2284      0.0000      1.7690      0.8408
   290.0000      0.0000    615.6310     41.7722  31816.7559   2446.9575     80.4689      0.3191  31764.4395      1.2043      0.0020      1.8099      0.8407
   291.0000      0.0000    615.6310     40.5852  31819.6621   2446.9678     80.4550      0.3186  31768.7988      1.2112      0.0163      1.8301      0.8417
   292.0000      0.0000    617.6010     42.4053  31827.0605   2446.9717     80.4875      0.3186  31768.7988      1.1827      0.0020      1.7556      0.8409
   293.0000      0.0000    615.6310     43.3450  31829.8340   2446.9695     80.4875      0.3173  31778.9707      1.1838     -0.0025      1.6957      0.8409
   294.0000      0.0000    614.6460     46.2966  31829.8340   2446.9695     80.4639      0.3211  31749.3789      1.1975      0.0020      1.5892      0.8403
   295.0000      0.0000    614.6460     50.0755  31829.8340   2446.9712     80.4875      0.3173  31778.9707      1.2116      0.0020      1.6251      0.8404
   296.0000      0.0000    612.6760     45.8353  31819.6621   2446.9712     80.4550      0.3173  31778.9707      1.2239      0.0082      1.5994      0.8403
   297.0000      0.0000    613.6610     42.2163  31822.7910   2446.9783     80.4689      0.3191  31764.4395      1.2379      0.0054      1.6212      0.8402
   298.0000      0.0000    607.7510     40.8008  31816.7559   2446.9758     80.4689      0.3191  31764.4395      1.2569      0.0115      1.6131      0.8401
   299.0000      0.0000    606.7659     40.0259  31825.4746   2446.9883     80.4775      0.3189  31766.4512      1.2769     -0.0011      1.6545      0.8395
   300.0000      0.0000    612.6760     42.0274  31829.8340   2446.9749     80.4550      0.3199  31758.6270      1.2939      0.0051      1.6443      0.8407
