~Version Information
VERS.                            2.0: CWLS Log ASCII STANDARD - VERSION 2.0
WRAP.                             NO: One line per depth step
~Well Information
STRT.SEC                      0.0000: START DEPTH
STOP.SEC                    300.0000: STOP DEPTH
STEP.SEC                      1.0000: STEP
NULL.                      -999.2500: NULL VALUE
COMP.                               : COMPANY
WELL.                               : WELL
FLD.                                : FIELD
LOC.                                : LOCATION
DATE.                Wed Sep 11 13-40-39 2024: LOG DATE
SECT.                               : SECTION
TOWN.                               : TOWNSHIP
RANG.                               : RANGE
OS.                                 : OTHER SERVICES
PDAT.FT                             : PERMANENT DATUM
EEL.FT                              : ELEVATION
LMF.FT                              : LOG MEASURED FROM
DMF.FT                              : DRILLING MEASURED FROM
EKB.FT                              : KB
EDF.FT                              : DF
EGL.FT                              : GL
DATE1.                              : DATE1
RUN1.                               : RUN NUMBER
TDD1.FT                             : DEPTH DRILLER
TDL1.FT                             : DEPTH LOGGER
BLI1.FT                             : BOTTOM LOGGED INTERVAL
TLI1.FT                             : TOP LOG INTERVAL
CDD1.IN_FT                          : CASING DRILLER
CDL1.FT                             : CASING LOGGER
BS1.IN                              : BIT SIZE
DFT1.                               : TYPE FLUID IN HOLE
DFDV1.GM/C3_CP                      : DENSITY/VISCOSITY
DFPL1.C3                            : PH/FLUID LOSS
MSS1.                               : SOURCE OF SAMPLE
RMT1.OHHM_DEGF                      : RM@MEASURED TEMP
RMFT1.OHMM_DEGF                     : RMF@MEASURED TEMP
RMCT1.OHMM_DEGF                     : RMC@MEASURED TEMP
RMFS1.                              : SOURCE OF RMF/RMC
RMBT1.OHMM_DEGF                     : RM@BHT
TCS1.                               : TIME CIRCULATION STOPPED
TLOB1.                              : TIME LOGGER ON BOTTOM
BHT1.DEGF                           : MAXIMUM RECORDED TEMPERATURE
LUN1.                               : EQUIPMENT NUMBER
LUL1.                               : LOCATION
ENGI1.                              : RECORDED BY
WITN1.                              : WITNESSED BY
COMW.                               : Common Well Name
~Curve Information
TIME.SEC                 0 000 00 00: Elapsed Time
LSPD.M/MIN                         0: Line Speed
LTEN.LB                            0: Surface Line Tension
GR.GAPI                            0: Gamma Ray
CCL.                               0: Casing Collar Locator
QP.PSI                             0: Quartz Pressure
TEMP.DEGC                          0: Downhole Temperature
CWH.                               0: Capacitance Water Holdup
CWHC.CPS                           0: CWH Counts
ILS.RPS                            0: Flowmeter
QPSG.                              0: Specific Gravity from QP
CFS.RPS                            0: Flowmeter
FDIDEN.G/CC                        0: FDI Fluid Density
~Parameter Information
~A  TIME       LSPD        LTEN         GR         CCL          QP         TEMP        CWH         CWHC        ILS         QPSG        CFS        FDIDEN   
# ...
   156.0000      0.0000    616.6160     46.6969  31829.8340   2446.7791     80.4550      0.3199  31758.6270      1.2414     -0.0065      1.6762      0.8421
   157.0000      0.0000    616.6160     46.0687  31829.8340   2446.7725     80.4875      0.3199  31758.6270      1.2147      0.0101      1.6596      0.8404
   158.0000      0.0000    614.6460     41.7850  31827.0605   2446.7878     80.4875      0.3186  31768.7988      1.2103      0.0262      1.5854      0.8415
   159.0000      0.0000    616.6160     40.7507  31815.9629   2446.7952     80.4875      0.3264  31707.7637      1.2176     -0.0208      1.6055      0.8419
   160.0000      0.0000    616.6160     43.1877  31825.4746   2446.7698     80.4775      0.3261  31710.1113      1.2193     -0.0268      1.5926      0.8416
   161.0000      0.0000    615.6310     45.5908  31825.4746   2446.7720     80.4689      0.3203  31755.7207      1.2386      0.0197      1.6120      0.8413
   162.0000      0.0000    617.6010     45.1181  31819.6621   2446.7869     80.4550      0.3251  31717.9355      1.2290      0.0242      1.5355      0.8415
   163.0000      0.0000    614.6460     47.5919  31815.9629   2446.7930     80.4550      0.3264  31707.7637      1.2379     -0.0023      1.6430      0.8421
   164.0000      0.0000    614.6460     49.4152  31827.0605   2446.7849     80.4550      0.3238  31728.1094      1.2401     -0.0084      1.6789      0.8416
   165.0000      0.0000    614.6460     49.7107  31827.0605   2446.7856     80.4875      0.3199  31758.6270      1.2415     -0.0104      1.7303      0.8420
   166.0000      0.0000    614.6460     50.1203  31825.4746   2446.7759     80.4775      0.3225  31738.2813      1.2252     -0.0093      1.5928      0.8430
   167.0000      0.0000    615.6310     48.0805  31819.6621   2446.7776     80.4550      0.3186  31768.7988      1.2053      0.0186      1.5807      0.8416
   168.0000      0.0000    614.6460     42.0666  31829.8340   2446.7920     80.4875      0.3212  31748.4531      1.1871      0.0020      1.5519      0.8411
   169.0000      0.0000    614.6460     45.4228  31825.4746   2446.7793     80.4689      0.3203  31755.7207      1.1845     -0.0090      1.5845      0.8412
   170.0000      0.0000    616.6160     51.1894  31822.7910   2446.7842     80.4689      0.3203  31755.7207      1.1962      0.0020      1.4955      0.8416
   171.0000      0.0000    617.6010     46.4282  31819.6621   2446.7810     80.4639      0.3225  31738.2813      1.1993     -0.0037      1.4297      0.8410
   172.0000      0.0000    614.6460     40.7403  31819.6621   2446.7810     80.4875      0.3264  31707.7637      1.2134      0.0023      1.4368      0.8418
   173.0000      0.0000    615.6310     38.8574  31829.8340   2446.7830     80.4550      0.3303  31677.2461      1.2464      0.0062      1.5584      0.8405
   174.0000      0.0000    617.6010     37.2929  31819.6621   2446.7864     80.4550      0.3277  31697.5918      1.2504     -0.0087      1.7131      0.8399
   175.0000      0.0000    614.6460     39.4909  31827.0605   2446.7754     80.4875      0.3212  31748.4531      1.2448      0.0096      1.7183      0.8404
   176.0000      0.0000    614.6460     43.0882  31825.4746   2446.7947     80.4775      0.3213  31747.6719      1.2350      0.0132      1.6575      0.8413
   177.0000      0.0000    616.6160     46.8087  31816.7559   2446.7869     80.4775      0.3225  31738.2813      1.2452     -0.0062      1.6581      0.8426
   178.0000      0.0000    612.6760     47.3804  31825.4746   2446.7893     80.4689      0.3191  31764.4395      1.2481      0.0034      1.7200      0.8416
   179.0000      0.0000    615.6310     42.7642  31819.6621   2446.7898     80.4550      0.3199  31758.6270      1.2515     -0.0141      1.7318      0.8436
   180.0000      0.0000    615.6310     39.0334  31829.8340   2446.7771     80.4550      0.3173  31778.9707      1.2587      0.0166      1.6824      0.8422
   181.0000      0.0000    615.6310     40.6697  31827.0605   2446.8042     80.4875      0.3212  31748.4531      1.2729      0.0014      1.6307      0.8419
   182.0000      0.0000    615.6310     43.6657  31829.8340   2446.7783     80.4875      0.3186  31768.7988      1.2911     -0.0208      1.6317      0.8424
   183.0000      0.0000    613.6610     42.9960  31829.8340   2446.7861     80.4639      0.3267  31704.9902      1.2816      0.0194      1.6328      0.8427
   184.0000      0.0000    615.6310     44.2758  31819.6621   2446.7952     80.4875      0.3264  31707.7637      1.2726     -0.0031      1.6291      0.8426
   185.0000      0.0000    613.6610     45.4184  31825.4746   2446.7834     80.4689      0.3236  31729.5625      1.2716      0.0000      1.6040      0.8418
   186.0000      0.0000    613.6610     44.3051  31832.1816   2446.7952     80.4689      0.3258  31712.1230      1.2492      0.0028      1.6363      0.8418
   187.0000      0.0000    615.6310     43.6184  31829.8340   2446.7859     80.4875      0.3251  31717.9355      1.2375     -0.0031      1.7402      0.8425
   188.0000      0.0000    616.6160     42.6543  31819.6621   2446.7925     80.4639      0.3211  31749.3789      1.2406      0.0169      1.7999      0.8429
   189.0000      0.0000    615.6310     44.1749  31829.8340   2446.8005     80.4550      0.3173  31778.9707      1.2507      0.0113      1.7443      0.8416
   190.0000      0.0000    614.6460     45.1707  31819.6621   2446.8022     80.4875      0.3173  31778.9707      1.2653      0.0084      1.6628      0.8406
   191.0000      0.0000    617.6010     41.6736  31827.0605   2446.8079     80.4550      0.3212  31748.4531      1.2804     -0.0208      1.6495      0.8434
   192.0000      0.0000    615.6310     38.9413  31827.0605   2446.7842     80.4875      0.3186  31768.7988      1.2823     -0.0034      1.6546      0.8430
   193.0000      0.0000    615.6310     42.7814  31825.4746   2446.8049     80.4775      0.3189  31766.4512      1.2741      0.0132      1.6257      0.8432
   194.0000      0.0000    618.5860     43.6544  31816.7559   2446.7957     80.4689      0.3191  31764.4395      1.2867     -0.0037      1.5786      0.8432
   195.0000      0.0000    615.6310     39.1322  31829.8340   2446.8018     80.4875      0.3225  31738.2813      1.3093      0.0008      1.6549      0.8416
   196.0000      0.0000    617.6010     42.0676  31819.6621   2446.7964     80.4550      0.3173  31778.9707      1.2976     -0.0130      1.6660      0.8430
   197.0000      0.0000    617.6010     46.3392  31815.9629   2446.7905     80.4875      0.3186  31768.7988      1.2851      0.0059      1.7154      0.8416
   198.0000      0.0000    615.6310     47.5786  31822.7910   2446.8015     80.4689      0.3191  31764.4395      1.2970      0.0172      1.7169      0.8432
   199.0000      0.0000    616.6160     47.3366  31819.6621   2446.8054     80.4639      0.3211  31749.3789      1.2953     -0.0037      1.7679      0.8423
   200.0000      0.0000    615.6310     45.0529  31829.8340   2446.7983     80.4550      0.3212  31748.4531      1.3049     -0.0034      1.7245      0.8418
   201.0000      0.0000    615.6310     40.5862  31816.7559   2446.8025     80.4689      0.3203  31755.7207      1.2796     -0.0014      1.6690      0.8424
   202.0000      0.0000    614.6460     37.4141  31825.4746   2446.7971     80.4968      0.3258  31712.1230      1.2821      0.0020      1.6271      0.8437
   203.0000      0.0000    614.6460     35.8955  31827.0605   2446.8042     80.4875      0.3212  31748.4531      1.2803      0.0073      1.6401      0.8430
   204.0000      0.0000    614.6460     37.4711  31829.8340   2446.8035     80.4639      0.3239  31727.1836      1.2487     -0.0008      1.6332      0.8423
   205.0000      0.0000    616.6160     42.5634  31819.6621   2446.8035     80.4550      0.3199  31758.6270      1.2331     -0.0084      1.5600      0.8433
   206.0000      0.0000    617.6010     45.1952  31829.8340   2446.7961     80.4550      0.3186  31768.7988      1.2232      0.0020      1.5438      0.8421
   207.0000      0.0000    615.6310     50.8176  31819.6621   2446.8052     80.4550      0.3199  31758.6270      1.2101      0.0045      1.4980      0.8419
