~Version Information
VERS.                            2.0: CWLS Log ASCII STANDARD - VERSION 2.0
WRAP.                             NO: One line per depth step
~Well Information
STRT.SEC                      0.0000: START DEPTH
STOP.SEC                    300.0000: STOP DEPTH
STEP.SEC                      1.0000: STEP
NULL.                      -999.2500: NULL VALUE
COMP.                               : COMPANY
WELL.                               : WELL
FLD.                                : FIELD
LOC.                                : LOCATION
DATE.                Wed Sep 11 13-40-39 2024: LOG DATE
SECT.                               : SECTION
TOWN.                               : TOWNSHIP
RANG.                               : RANGE
OS.                                 : OTHER SERVICES
PDAT.FT                             : PERMANENT DATUM
EEL.FT                              : ELEVATION
LMF.FT                              : LOG MEASURED FROM
DMF.FT                              : DRILLING MEASURED FROM
EKB.FT                              : KB
EDF.FT                              : DF
EGL.FT                              : GL
DATE1.                              : DATE1
RUN1.                               : RUN NUMBER
TDD1.FT                             : DEPTH DRILLER
TDL1.FT                             : DEPTH LOGGER
BLI1.FT                             : BOTTOM LOGGED INTERVAL
TLI1.FT                             : TOP LOG INTERVAL
CDD1.IN_FT                          : CASING DRILLER
CDL1.FT                             : CASING LOGGER
BS1.IN                              : BIT SIZE
DFT1.                               : TYPE FLUID IN HOLE
DFDV1.GM/C3_CP                      : DENSITY/VISCOSITY
DFPL1.C3                            : PH/FLUID LOSS
MSS1.                               : SOURCE OF SAMPLE
RMT1.OHHM_DEGF                      : RM@MEASURED TEMP
RMFT1.OHMM_DEGF                     : RMF@MEASURED TEMP
RMCT1.OHMM_DEGF                     : RMC@MEASURED TEMP
RMFS1.                              : SOURCE OF RMF/RMC
RMBT1.OHMM_DEGF                     : RM@BHT
TCS1.                               : TIME CIRCULATION STOPPED
TLOB1.                              : TIME LOGGER ON BOTTOM
BHT1.DEGF                           : MAXIMUM RECORDED TEMPERATURE
LUN1.                               : EQUIPMENT NUMBER
LUL1.                               : LOCATION
ENGI1.                              : RECORDED BY
WITN1.                              : WITNESSED BY
COMW.                               : Common Well Name
~Curve Information
TIME.SEC                 0 000 00 00: Elapsed Time
LSPD.M/MIN                         0: Line Speed
LTEN.LB                            0: Surface Line Tension
GR.GAPI                            0: Gamma Ray
CCL.                               0: Casing Collar Locator
QP.PSI                             0: Quartz Pressure
TEMP.DEGC                          0: Downhole Temperature
CWH.                               0: Capacitance Water Holdup
CWHC.CPS                           0: CWH Counts
ILS.RPS                            0: Flowmeter
QPSG.                              0: Specific Gravity from QP
CFS.RPS                            0: Flowmeter
FDIDEN.G/CC                        0: FDI Fluid Density
~Parameter Information
~A  TIME       LSPD        LTEN         GR         CCL          QP         TEMP        CWH         CWHC        ILS         QPSG        CFS        FDIDEN   
# ...
    52.0000      0.0000    612.6760     38.8521  31823.7305   2446.7229     80.4745      0.3225  31738.2813      1.2172      0.0073      1.5455      0.8453
    53.0000      0.0000    614.6460     43.5127  31827.0605   2446.7195     80.4550      0.3225  31738.2813      1.2299      0.0110      1.5210      0.8461
    54.0000      0.0000    613.6610     47.2983  31829.8340   2446.7324     80.4639      0.3225  31738.2813      1.2412      0.0169      1.4728      0.8460
    55.0000      0.0000    610.7060     47.8530  31829.8340   2446.7341     80.4875      0.3186  31768.7988      1.2417     -0.0132      1.5377      0.8445
    56.0000      0.0000    615.6310     47.1191  31816.7559   2446.7209     80.4968      0.3292  31685.9648      1.2547     -0.0132      1.5351      0.8440
    57.0000      0.0000    611.6910     48.1244  31825.4746   2446.7227     80.4689      0.3214  31747.0000      1.2649      0.0079      1.4852      0.8447
    58.0000      0.0000    611.6910     45.0015  31827.0605   2446.7278     80.4550      0.3264  31707.7637      1.2611      0.0082      1.4479      0.8454
    59.0000      0.0000    613.6610     42.6494  31815.9629   2446.7297     80.4875      0.3329  31656.9004      1.2343     -0.0194      1.4709      0.8463
    60.0000      0.0000    610.7060     43.4367  31819.6621   2446.7109     80.4639      0.3211  31749.3789      1.2329     -0.0014      1.5608      0.8464
    61.0000      0.0000    611.6910     39.8922  31829.8340   2446.7285     80.4639      0.3211  31749.3789      1.2231      0.0369      1.6255      0.8443
    62.0000      0.0000    609.7209     42.7993  31829.8340   2446.7429     80.4875      0.3212  31748.4531      1.2393     -0.0065      1.6480      0.8453
    63.0000      0.0000    611.6910     46.6877  31819.6621   2446.7229     80.4550      0.3160  31789.1445      1.2563      0.0028      1.6678      0.8430
    64.0000      0.0000    610.7060     45.9438  31827.0605   2446.7454     80.4550      0.3303  31677.2461      1.2791      0.0135      1.6589      0.8437
    65.0000      0.0000    610.7060     48.8715  31825.4746   2446.7346     80.4775      0.3177  31775.8418      1.3070     -0.0127      1.7338      0.8439
    66.0000      0.0000    612.6760     49.9451  31829.8340   2446.7344     80.4639      0.3168  31782.6699      1.2995      0.0197      1.7041      0.8437
    67.0000      0.0000    608.7360     45.9196  31819.6621   2446.7517     80.4550      0.3186  31768.7988      1.2778      0.0180      1.6789      0.8467
    68.0000      0.0000    612.6760     47.3354  31825.4746   2446.7500     80.4689      0.3236  31729.5625      1.2692      0.0014      1.6603      0.8459
    69.0000      0.0000    611.6910     48.4094  31827.0605   2446.7529     80.4550      0.3186  31768.7988      1.2639     -0.0107      1.6540      0.8428
    70.0000      0.0000    608.7360     46.4230  31819.6621   2446.7407     80.4550      0.3199  31758.6270      1.2585     -0.0037      1.5996      0.8445
    71.0000      0.0000    613.6610     44.3938  31819.6621   2446.7498     80.4993      0.3168  31782.6699      1.2738      0.0124      1.5700      0.8433
    72.0000      0.0000    610.7060     46.7698  31825.4746   2446.7515     80.4689      0.3247  31720.8418      1.2652      0.0090      1.6791      0.8447
    73.0000      0.0000    611.6910     50.7329  31825.4746   2446.7576     80.4689      0.3214  31747.0000      1.2818     -0.0008      1.7025      0.8435
    74.0000      0.0000    614.6460     48.7046  31827.0605   2446.7507     80.4875      0.3212  31748.4531      1.2788     -0.0113      1.5900      0.8441
    75.0000      0.0000    611.6910     48.2403  31829.8340   2446.7478     80.4875      0.3186  31768.7988      1.2767      0.0070      1.4851      0.8423
    76.0000      0.0000    614.6460     48.6337  31819.6621   2446.7568     80.4993      0.3296  31682.7949      1.2591      0.0124      1.5348      0.8464
    77.0000      0.0000    613.6610     45.2618  31819.6621   2446.7585     80.4639      0.3296  31682.7949      1.2382      0.0124      1.6637      0.8456
    78.0000      0.0000    611.6910     39.8424  31819.6621   2446.7676     80.4875      0.3186  31768.7988      1.2374     -0.0042      1.6337      0.8442
    79.0000      0.0000    611.6910     42.2047  31829.8340   2446.7549     80.4875      0.3225  31738.2813      1.2485     -0.0011      1.5485      0.8430
    80.0000      0.0000    615.6310     45.2542  31825.4746   2446.7666     80.4689      0.3214  31747.0000      1.2506     -0.0025      1.5478      0.8434
    81.0000      0.0000    612.6760     44.4407  31815.9629   2446.7527     80.4875      0.3277  31697.5918      1.2522     -0.0006      1.5810      0.8431
    82.0000      0.0000    608.7360     44.0731  31819.6621   2446.7661     80.4993      0.3253  31716.0859      1.2450      0.0084      1.5870      0.8435
    83.0000      0.0000    610.7060     45.5117  31829.8340   2446.7600     80.4875      0.3225  31738.2813      1.2248     -0.0048      1.5897      0.8453
    84.0000      0.0000    607.7510     47.8429  31819.6621   2446.7620     80.4550      0.3199  31758.6270      1.2229      0.0042      1.6443      0.8472
    85.0000      0.0000    606.7659     45.4029  31819.6621   2446.7637     80.4875      0.3199  31758.6270      1.2080      0.0070      1.6678      0.8450
    86.0000      0.0000    605.7809     46.2941  31827.0605   2446.7681     80.4550      0.3212  31748.4531      1.1836      0.0020      1.7582      0.8447
    87.0000      0.0000    604.7959     53.5457  31825.4746   2446.7654     80.4775      0.3249  31719.5020      1.2003     -0.0146      1.7375      0.8471
    88.0000      0.0000    605.7809     48.3868  31825.4746   2446.7554     80.4968      0.3203  31755.7207      1.1950     -0.0099      1.7119      0.8453
    89.0000      0.0000    606.7659     37.5849  31816.7559   2446.7568     80.4775      0.3213  31747.6719      1.1861      0.0144      1.6615      0.8426
    90.0000      0.0000    604.7959     34.5830  31829.8340   2446.7678     80.4550      0.3199  31758.6270      1.2068      0.0146      1.6631      0.8420
    91.0000      0.0000    607.7510     38.0443  31829.8340   2446.7695     80.4875      0.3199  31758.6270      1.2024     -0.0090      1.7255      0.8430
    92.0000      0.0000    608.7360     42.4925  31815.9629   2446.7600     80.4550      0.3186  31768.7988      1.2331      0.0054      1.6681      0.8434
    93.0000      0.0000    605.7809     45.0652  31819.6621   2446.7742     80.4875      0.3199  31758.6270      1.2162     -0.0003      1.6430      0.8453
    94.0000      0.0000    606.7659     43.8981  31819.6621   2446.7598     80.4993      0.3282  31693.8926      1.2081     -0.0146      1.5800      0.8434
    95.0000      0.0000    608.7360     39.2396  31819.6621   2446.7615     80.4875      0.3277  31697.5918      1.2052     -0.0073      1.6823      0.8431
    96.0000      0.0000    606.7659     40.9193  31816.7559   2446.7534     80.4689      0.3236  31729.5625      1.2018      0.0020      1.7289      0.8438
    97.0000      0.0000    609.7209     40.1522  31822.7910   2446.7632     80.4689      0.3180  31773.1582      1.1934     -0.0039      1.7545      0.8461
    98.0000      0.0000    609.7209     39.4076  31822.7910   2446.7500     80.4689      0.3214  31747.0000      1.1925     -0.0118      1.6892      0.8451
    99.0000      0.0000    607.7510     44.1358  31819.6621   2446.7529     80.4993      0.3211  31749.3789      1.1909     -0.0039      1.5734      0.8427
   100.0000      0.0000    610.7060     49.5452  31819.6621   2446.7466     80.4875      0.3225  31738.2813      1.2021      0.0011      1.6202      0.8407
   101.0000      0.0000    610.7060     46.5336  31829.8340   2446.7539     80.4875      0.3290  31687.4180      1.2092     -0.0025      1.7202      0.8407
   102.0000      0.0000    611.6910     41.7125  31815.9629   2446.7444     80.4550      0.3238  31728.1094      1.2191     -0.0141      1.8016      0.8419
   103.0000      0.0000    611.6910     37.4377  31815.9629   2446.7417     80.4875      0.3251  31717.9355      1.2282      0.0014      1.7387      0.8443
