~Version Information
VERS.                            2.0: CWLS Log ASCII STANDARD - VERSION 2.0
WRAP.                             NO: One line per depth step
~Well Information
STRT.SEC                      0.0000: START DEPTH
STOP.SEC                    300.0000: STOP DEPTH
STEP.SEC                      1.0000: STEP
NULL.                      -999.2500: NULL VALUE
COMP.                               : COMPANY
WELL.                               : WELL
FLD.                                : FIELD
LOC.                                : LOCATION
DATE.                Wed Sep 11 13-40-39 2024: LOG DATE
SECT.                               : SECTION
TOWN.                               : TOWNSHIP
RANG.                               : RANGE
OS.                                 : OTHER SERVICES
PDAT.FT                             : PERMANENT DATUM
EEL.FT                              : ELEVATION
LMF.FT                              : LOG MEASURED FROM
DMF.FT                              : DRILLING MEASURED FROM
EKB.FT                              : KB
EDF.FT                              : DF
EGL.FT                              : GL
DATE1.                              : DATE1
RUN1.                               : RUN NUMBER
TDD1.FT                             : DEPTH DRILLER
TDL1.FT                             : DEPTH LOGGER
BLI1.FT                             : BOTTOM LOGGED INTERVAL
TLI1.FT                             : TOP LOG INTERVAL
CDD1.IN_FT                          : CASING DRILLER
CDL1.FT                             : CASING LOGGER
BS1.IN                              : BIT SIZE
DFT1.                               : TYPE FLUID IN HOLE
DFDV1.GM/C3_CP                      : DENSITY/VISCOSITY
DFPL1.C3                            : PH/FLUID LOSS
MSS1.                               : SOURCE OF SAMPLE
RMT1.OHHM_DEGF                      : RM@MEASURED TEMP
RMFT1.OHMM_DEGF                     : RMF@MEASURED TEMP
RMCT1.OHMM_DEGF                     : RMC@MEASURED TEMP
RMFS1.                              : SOURCE OF RMF/RMC
RMBT1.OHMM_DEGF                     : RM@BHT
TCS1.                               : TIME CIRCULATION STOPPED
TLOB1.                              : TIME LOGGER ON BOTTOM
BHT1.DEGF                           : MAXIMUM RECORDED TEMPERATURE
LUN1.                               : EQUIPMENT NUMBER
LUL1.                               : LOCATION
ENGI1.                              : RECORDED BY
WITN1.                              : WITNESSED BY
COMW.                               : Common Well Name
~Curve Information
TIME.SEC                 0 000 00 00: Elapsed Time
LSPD.M/MIN                         0: Line Speed
LTEN.LB                            0: Surface Line Tension
GR.GAPI                            0: Gamma Ray
CCL.                               0: Casing Collar Locator
QP.PSI                             0: Quartz Pressure
TEMP.DEGC                          0: Downhole Temperature
CWH.                               0: Capacitance Water Holdup
CWHC.CPS                           0: CWH Counts
ILS.RPS                            0: Flowmeter
QPSG.                              0: Specific Gravity from QP
CFS.RPS                            0: Flowmeter
FDIDEN.G/CC                        0: FDI Fluid Density
~Parameter Information
~A  TIME       LSPD        LTEN         GR         CCL          QP         TEMP        CWH         CWHC        ILS         QPSG        CFS        FDIDEN   
# ...
   208.0000      0.0000    616.6160     48.9488  31827.0605   2446.8000     80.4875      0.3225  31738.2813      1.1863     -0.0099      1.6243      0.8430
   209.0000      0.0000    616.6160     47.4533  31825.4746   2446.7966     80.4775      0.3201  31757.0605      1.1798      0.0051      1.7549      0.8429
   210.0000      0.0000    617.6010     45.7686  31825.4746   2446.8044     80.4689      0.3169  31781.8770      1.1793     -0.0028      1.8345      0.8419
   211.0000      0.0000    619.5710     43.1491  31829.8340   2446.7942     80.4639      0.3211  31749.3789      1.1811      0.0070      1.7737      0.8420
   212.0000      0.0000    616.6160     44.2670  31819.6621   2446.8105     80.4875      0.3173  31778.9707      1.1775     -0.0062      1.6040      0.8429
   213.0000      0.0000    618.5860     51.3494  31829.8340   2446.7888     80.4550      0.3212  31748.4531      1.2065     -0.0222      1.5676      0.8424
   214.0000      0.0000    616.6160     50.8155  31827.0605   2446.7913     80.4875      0.3212  31748.4531      1.2203     -0.0042      1.5892      0.8427
   215.0000      0.0000    614.6460     46.7792  31829.8340   2446.7852     80.4550      0.3303  31677.2461      1.2381      0.0200      1.6849      0.8422
   216.0000      0.0000    616.6160     46.7311  31819.6621   2446.8086     80.4639      0.3225  31738.2813      1.2545     -0.0065      1.6626      0.8413
   217.0000      0.0000    615.6310     48.6191  31825.4746   2446.7795     80.4689      0.3191  31764.4395      1.2611     -0.0065      1.5956      0.8414
   218.0000      0.0000    615.6310     45.1631  31819.6621   2446.8030     80.4550      0.3186  31768.7988      1.2747      0.0006      1.5695      0.8424
   219.0000      0.0000    615.6310     45.1978  31815.9629   2446.7800     80.4550      0.3186  31768.7988      1.2777     -0.0242      1.6041      0.8416
   220.0000      0.0000    616.6160     48.4570  31827.0605   2446.7820     80.4550      0.3225  31738.2813      1.2698      0.0141      1.6153      0.8419
   221.0000      0.0000    614.6460     45.6844  31829.8340   2446.7922     80.4639      0.3197  31760.4766      1.2764      0.0031      1.5607      0.8420
   222.0000      0.0000    616.6160     43.0455  31829.8340   2446.7847     80.4550      0.3173  31778.9707      1.2736      0.0000      1.5415      0.8413
   223.0000      0.0000    616.6160     41.0622  31819.6621   2446.7922     80.4550      0.3212  31748.4531      1.2476     -0.0062      1.5506      0.8415
   224.0000      0.0000    614.6460     38.3728  31819.6621   2446.7793     80.4875      0.3199  31758.6270      1.2175     -0.0149      1.5736      0.8425
   225.0000      0.0000    616.6160     39.8851  31819.6621   2446.7793     80.4875      0.3212  31748.4531      1.1861      0.0090      1.4748      0.8411
   226.0000      0.0000    613.6610     42.8884  31815.9629   2446.7871     80.4875      0.3212  31748.4531      1.1841      0.0287      1.4549      0.8400
   227.0000      0.0000    614.6460     45.6426  31811.5234   2446.8042     80.4745      0.3178  31774.9023      1.1826      0.0014      1.4890      0.8401
   228.0000      0.0000    616.6160     46.2587  31829.8340   2446.7883     80.4550      0.3212  31748.4531      1.1615     -0.0245      1.6366      0.8398
   229.0000      0.0000    615.6310     43.9742  31829.8340   2446.7830     80.4875      0.3199  31758.6270      1.1544     -0.0127      1.5799      0.8409
   230.0000      0.0000    615.6310     40.8063  31819.6621   2446.7773     80.4550      0.3186  31768.7988      1.1701      0.0099      1.5012      0.8393
   231.0000      0.0000    614.6460     42.0212  31827.0605   2446.7915     80.4550      0.3186  31768.7988      1.1858      0.0273      1.4091      0.8403
   232.0000      0.0000    615.6310     46.5421  31819.6621   2446.8010     80.4875      0.3212  31748.4531      1.2068      0.0051      1.4038      0.8401
   233.0000      0.0000    614.6460     47.8837  31825.4746   2446.7959     80.4775      0.3189  31766.4512      1.2254     -0.0059      1.4890      0.8404
   234.0000      0.0000    614.6460     44.4095  31825.4746   2446.7959     80.4689      0.3191  31764.4395      1.2203     -0.0068      1.6303      0.8402
   235.0000      0.0000    614.6460     42.7111  31819.6621   2446.7900     80.4875      0.3186  31768.7988      1.2279      0.0008      1.6854      0.8402
   236.0000      0.0000    615.6310     41.4519  31827.0605   2446.7966     80.4550      0.3199  31758.6270      1.2397      0.0166      1.6154      0.8415
   237.0000      0.0000    614.6460     37.6373  31829.8340   2446.8044     80.4875      0.3225  31738.2813      1.2559      0.0110      1.5345      0.8406
   238.0000      0.0000    614.6460     34.0430  31829.8340   2446.8062     80.4993      0.3253  31716.0859      1.2583      0.0124      1.5539      0.8401
   239.0000      0.0000    615.6310     37.3519  31819.6621   2446.8152     80.4550      0.3225  31738.2813      1.2628      0.0096      1.6417      0.8407
   240.0000      0.0000    612.6760     38.7594  31825.4746   2446.8145     80.4689      0.3203  31755.7207      1.2777      0.0084      1.7185      0.8399
   241.0000      0.0000    616.6160     37.7419  31829.8340   2446.8225     80.4875      0.3212  31748.4531      1.2856      0.0189      1.7115      0.8402
   242.0000      0.0000    614.6460     37.7600  31822.7910   2446.8308     80.4689      0.3191  31764.4395      1.2868      0.0020      1.7880      0.8402
   243.0000      0.0000    612.6760     38.5663  31822.7910   2446.8242     80.4689      0.3191  31764.4395      1.2963      0.0110      1.8280      0.8399
   244.0000      0.0000    615.6310     38.8816  31819.6621   2446.8403     80.4639      0.3211  31749.3789      1.2762      0.0039      1.9119      0.8409
   245.0000      0.0000    614.6460     38.9315  31829.8340   2446.8276     80.4550      0.3186  31768.7988      1.2498      0.0189      1.7816      0.8405
   246.0000      0.0000    614.6460     40.5747  31819.6621   2446.8567     80.4550      0.3212  31748.4531      1.2166      0.0118      1.7037      0.8408
   247.0000      0.0000    615.6310     39.8686  31827.0605   2446.8379     80.4875      0.3199  31758.6270      1.2093     -0.0028      1.5910      0.8408
   248.0000      0.0000    616.6160     41.4026  31827.0605   2446.8542     80.4875      0.3277  31697.5918      1.2221      0.0245      1.6000      0.8409
   249.0000      0.0000    613.6610     39.5083  31825.4746   2446.8591     80.4775      0.3189  31766.4512      1.2113      0.0146      1.6070      0.8425
   250.0000      0.0000    612.6760     41.2229  31825.4746   2446.8669     80.4689      0.3303  31677.2461      1.2186      0.0031      1.5514      0.8417
   251.0000      0.0000    614.6460     42.1892  31819.6621   2446.8618     80.4875      0.3290  31687.4180      1.2525      0.0130      1.5147      0.8422
   252.0000      0.0000    610.7060     38.6846  31819.6621   2446.8782     80.4875      0.3277  31697.5918      1.2765      0.0155      1.4484      0.8422
   253.0000      0.0000    616.6160     38.0083  31827.0605   2446.8752     80.4875      0.3186  31768.7988      1.3011      0.0020      1.3747      0.8422
   254.0000      0.0000    616.6160     38.1130  31819.6621   2446.8799     80.4993      0.3253  31716.0859      1.2850      0.0054      1.4360      0.8419
   255.0000      0.0000    611.6910     39.3799  31829.8340   2446.8799     80.4875      0.3225  31738.2813      1.2866      0.0008      1.5328      0.8413
   256.0000      0.0000    616.6160     43.4305  31819.6621   2446.8806     80.4639      0.3239  31727.1836      1.2694      0.0189      1.6365      0.8414
   257.0000      0.0000    614.6460     49.0715  31819.6621   2446.8962     80.4875      0.3225  31738.2813      1.2554      0.0127      1.5793      0.8405
   258.0000      0.0000    615.6310     49.4298  31825.4746   2446.8916     80.4968      0.3203  31755.7207      1.2415     -0.0008      1.5781      0.8415
   259.0000      0.0000    614.6460     44.9569  31815.9629   2446.8955     80.4875      0.3238  31728.1094      1.2377      0.0259      1.6281      0.8416
