~Version Information
VERS.                            2.0: CWLS Log ASCII STANDARD - VERSION 2.0
WRAP.                             NO: One line per depth step
~Well Information
STRT.M                     2229.9168: START DEPTH
STOP.M                     2385.0600: STOP DEPTH
STEP.M                        0.1524: STEP
NULL.                      -999.2500: NULL VALUE
COMP.                               : COMPANY
WELL.                               : WELL
FLD.                                : FIELD
LOC.                                : LOCATION
DATE.                Wed Sep 11 12-22-31 2024: LOG DATE
SECT.                               : SECTION
TOWN.                               : TOWNSHIP
RANG.                               : RANGE
OS.                                 : OTHER SERVICES
PDAT.FT                             : PERMANENT DATUM
EEL.FT                              : ELEVATION
LMF.FT                              : LOG MEASURED FROM
DMF.FT                              : DRILLING MEASURED FROM
EKB.FT                              : KB
EDF.FT                              : DF
EGL.FT                              : GL
DATE1.                              : DATE1
RUN1.                               : RUN NUMBER
TDD1.FT                             : DEPTH DRILLER
TDL1.FT                             : DEPTH LOGGER
BLI1.FT                             : BOTTOM LOGGED INTERVAL
TLI1.FT                             : TOP LOG INTERVAL
CDD1.IN_FT                          : CASING DRILLER
CDL1.FT                             : CASING LOGGER
BS1.IN                              : BIT SIZE
DFT1.                               : TYPE FLUID IN HOLE
DFDV1.GM/C3_CP                      : DENSITY/VISCOSITY
DFPL1.C3                            : PH/FLUID LOSS
MSS1.                               : SOURCE OF SAMPLE
RMT1.OHHM_DEGF                      : RM@MEASURED TEMP
RMFT1.OHMM_DEGF                     : RMF@MEASURED TEMP
RMCT1.OHMM_DEGF                     : RMC@MEASURED TEMP
RMFS1.                              : SOURCE OF RMF/RMC
RMBT1.OHMM_DEGF                     : RM@BHT
TCS1.                               : TIME CIRCULATION STOPPED
TLOB1.                              : TIME LOGGER ON BOTTOM
BHT1.DEGF                           : MAXIMUM RECORDED TEMPERATURE
LUN1.                               : EQUIPMENT NUMBER
LUL1.                               : LOCATION
ENGI1.                              : RECORDED BY
WITN1.                              : WITNESSED BY
COMW.                               : Common Well Name
~Curve Information
DEPT.M                   0 000 00 00: Depth
LSPD.M/MIN                         0: Line Speed
LTEN.LB                            0: Surface Line Tension
GR.GAPI                            0: Gamma Ray
CCL.                               0: Casing Collar Locator
QP.PSI                             0: Quartz Pressure
TEMP.DEGC                          0: Downhole Temperature
CWH.                               0: Capacitance Water Holdup
CWHC.CPS                           0: CWH Counts
ILS.RPS                            0: Flowmeter
QPSG.                              0: Specific Gravity from QP
CFS.RPS                            0: Flowmeter
FDIDEN.G/CC                        0: FDI Fluid Density
~Parameter Information
~A  Depth       LSPD        LTEN         GR         CCL          QP         TEMP        CWH         CWHC        ILS         QPSG        CFS        FDIDEN   
# ...
  2293.3152      9.8877    590.0208     15.8577  31829.8340   2447.6750     80.4722      0.3238  31727.9355      0.0000      0.8220      2.3753      0.8372
  2293.4676      9.8328    591.0059     15.3439  31799.3164   2447.8547     80.4807      0.3176  31776.8301      0.0000      0.8141      2.3476      0.8381
  2293.6200      9.8024    593.9609     14.8996  31793.7676   2448.0315     80.4826      0.3198  31758.9707      0.0000      0.8220      2.2982      0.8392
  2293.7724      9.9395    591.0059     13.8352  31962.0762   2448.2009     80.4780      0.3198  31758.9707      0.0000      0.8189      2.2959      0.8393
  2293.9248      9.9395    594.9459     12.2651  31728.1094   2448.3877     80.4854      0.3189  31766.1211      0.0000      0.8177      2.3473      0.8385
  2294.0772      9.8877    592.9758     10.8527  31799.3164   2448.5647     80.4875      0.3202  31756.0371      0.0000      0.8200      2.4012      0.8379
  2294.2296      9.8938    591.0059     10.1279  31812.8789   2448.7405     80.4831      0.3206  31753.2715      0.0000      0.8124      2.3978      0.8370
  2294.3820      9.9792    593.9609     10.1099  31848.1445   2448.9119     80.4854      0.3211  31749.3789      0.0000      0.8220      2.3868      0.8368
  2294.5344      9.9030    589.0358     10.3072  31781.8770   2449.0920     80.4851      0.3200  31757.4297      0.0000      0.8192      2.3796      0.8384
  2294.6868      9.8420    591.0059     10.1693  31833.2246   2449.2773     80.4807      0.3175  31777.5918      0.0000      0.8287      2.3020      0.8415
  2294.8392      9.9090    594.9459      9.6113  31822.2051   2449.4507     80.4807      0.3210  31749.7969      0.0000      0.8234      2.2987      0.8410
  2294.9916      9.9243    589.0358      8.9211  31804.8652   2449.6304     80.4831      0.3176  31776.8301      0.0000      0.8146      2.2442      0.8408
  2295.1440      9.9090    586.0808      8.3500  31819.6621   2449.8059     80.4826      0.3189  31766.1211      0.0000      0.8186      2.2686      0.8417
  2295.2964      9.9548    591.9908      8.0527  31822.2051   2449.9836     80.4807      0.3195  31761.8379      0.0000      0.8149      2.2599      0.8411
  2295.4488      9.9639    589.0358      8.1860  31887.4785   2450.1604     80.4875      0.3178  31775.0957      0.0000      0.8189      2.2306      0.8413
  2295.6012      9.8725    594.9459      8.8111  31814.5742   2450.3369     80.4897      0.3208  31751.5977      0.0000      0.8152      2.2155      0.8419
  2295.7536      9.7963    591.0059      9.8556  31827.0605   2450.5159     80.4851      0.3214  31746.8477      0.0000      0.8183      2.2048      0.8409
  2295.9060      9.8877    595.9308     11.1904  31792.5352   2450.6904     80.4849      0.3200  31757.6582      0.0000      0.8107      2.2676      0.8406
  2296.0584      9.8877    596.9159     12.5157  31838.1563   2450.8699     80.4831      0.3189  31766.1211      0.0000      0.8152      2.2129      0.8412
  2296.2108      9.8328    589.0358     13.5586  31826.4434   2451.0398     80.4849      0.3188  31767.2480      0.0000      0.8192      2.1724      0.8411
  2296.3632      9.7719    597.9009     14.7154  31860.3516   2451.2227     80.4831      0.3173  31778.9707      0.0000      0.8192      2.2189      0.8410
  2296.5156      9.8420    591.0059     16.7088  31793.2129   2451.4006     80.4826      0.3178  31774.6875      0.0000      0.8304      2.2199      0.8412
  2296.6680      9.9030    591.0059     19.4925  31860.3516   2451.5801     80.4875      0.3167  31783.2539      0.0000      0.8225      2.1851      0.8402
  2296.8204      9.9030    597.9009     22.4321  31852.7227   2451.7598     80.4854      0.3187  31768.2637      0.0000      0.8287      2.2060      0.8407
  2296.9728      9.8938    591.9908     25.3065  31814.5742   2451.9358     80.4875      0.3173  31778.9707      0.0000      0.8161      2.2753      0.8416
  2297.1252     10.0249    594.9459     28.4571  31855.2656   2452.1191     80.4854      0.3148  31798.2070      0.0000      0.8186      2.2666      0.8402
  2297.2776      9.8786    591.0059     32.7142  31819.6621   2452.2876     80.4780      0.3131  31811.9844      0.0000      0.8194      2.2123      0.8402
  2297.4300      9.7810    589.0358     39.2157  31860.3516   2452.4695     80.4831      0.3170  31781.1133      0.0000      0.8099      2.1973      0.8410
  2297.5824      9.9944    596.9159     47.5526  31833.2246   2452.6462     80.4799      0.3180  31773.4531      0.0000      0.8220      2.1786      0.8410
  2297.7348      9.8786    590.0208     54.0908  31814.5742   2452.8213     80.4807      0.3148  31798.2461      0.0000      0.8104      2.1578      0.8408
  2297.8872      9.8328    591.0059     54.5882  31805.4199   2453.0002     80.4780      0.3180  31773.4531      0.0000      0.8130      2.1675      0.8415
  2298.0396      9.8328    596.9159     48.9283  31845.0938   2453.1721     80.4533      0.3369  31625.4238      0.0000      0.8155      2.1545      0.8424
  2298.1920     10.0005    591.9908     41.1799  31840.0059   2453.3511     80.4718      0.3225  31738.2813      0.0000      0.8144      2.1466      0.8432
  2298.3444      9.9182    601.8409     35.1331  31852.7227   2453.5283     80.4875      0.3171  31780.5371      0.0000      0.8177      2.1860      0.8428
  2298.4968      9.8877    593.9609     31.7765  31842.0410   2453.7063     80.4982      0.3168  31782.6699      0.0000      0.8135      2.1416      0.8424
  2298.6492      9.9030    590.0208     30.3654  31842.0410   2453.8811     80.5121      0.3192  31763.9805      0.0000      0.8124      2.0595      0.8423
  2298.8016      9.9243    593.9609     29.8112  31880.6973   2454.0564     80.5149      0.3208  31751.5977      0.0000      0.8056      2.0255      0.8429
  2298.9540      9.9030    594.9459     29.4759  31819.6621   2454.2327     80.5162      0.3206  31752.7637      0.0000      0.8054      1.9886      0.8428
  2299.1064      9.8420    596.9159     29.9840  31822.2051   2454.4048     80.5217      0.3216  31745.4609      0.0000      0.8101      1.9777      0.8421
  2299.2588      9.9700    593.9609     32.5068  31817.6270   2454.5793     80.5162      0.3208  31751.5977      0.0000      0.8175      1.9558      0.8423
  2299.4112      9.9030    591.0059     36.4571  31894.2598   2454.7588     80.5217      0.3204  31754.4043      0.0000      0.8099      2.0088      0.8420
  2299.5636      9.8268    601.8409     39.0815  31819.6621   2454.9414     80.5228      0.3216  31744.9395      0.0000      0.8065      2.0949      0.8415
  2299.7160      9.9852    592.9758     38.3969  31819.6621   2455.1069     80.5225      0.3185  31769.8516      0.0000      0.8099      2.1385      0.8415
  2299.8684      9.9090    593.9609     35.9263  31827.7988   2455.2786     80.5247      0.3195  31761.8379      0.0000      0.7986      2.1381      0.8421
  2300.0208      9.9090    596.9159     36.1383  31842.0410   2455.4609     80.5225      0.3175  31777.5918      0.0000      0.8107      2.0872      0.8421
  2300.1732      9.8877    597.9009     43.7985  31784.0586   2455.6338     80.5286      0.3183  31770.9785      0.0000      0.8093      2.1187      0.8412
  2300.3256      9.9548    598.8859     60.6080  31876.9980   2455.8098     80.5238      0.3183  31771.3848      0.0000      0.8082      2.0790      0.8412
  2300.4780      9.9487    594.9459     81.7839  31692.5039   2455.9802     80.5286      0.3234  31730.8066      0.0000      0.7989      2.0727      0.8423
  2300.6304      9.9548    592.9758     98.1395  31799.3164   2456.1616     80.5302      0.3205  31753.8184      0.0000      0.8045      2.1163      0.8427
  2300.7828      9.8481    594.9459    105.7031  31840.0059   2456.3264     80.5406      0.3183  31771.3848      0.0000      0.8093      2.1691      0.8424
  2300.9352      9.9852    593.9609    108.1919  31808.0352   2456.5073     80.5391      0.3206  31753.2715      0.0000      0.7986      2.1991      0.8423
  2301.0876      9.9090    592.9758    105.9919  31758.6270   2456.6819     80.5396      0.3198  31759.6973      0.0000      0.8155      2.1610      0.8425
