~Version Information
VERS.                            2.0: CWLS Log ASCII STANDARD - VERSION 2.0
WRAP.                             NO: One line per depth step
~Well Information
STRT.M                     2229.9168: START DEPTH
STOP.M                     2385.0600: STOP DEPTH
STEP.M                        0.1524: STEP
NULL.                      -999.2500: NULL VALUE
COMP.                               : COMPANY
WELL.                               : WELL
FLD.                                : FIELD
LOC.                                : LOCATION
DATE.                Wed Sep 11 12-22-31 2024: LOG DATE
SECT.                               : SECTION
TOWN.                               : TOWNSHIP
RANG.                               : RANGE
OS.                                 : OTHER SERVICES
PDAT.FT                             : PERMANENT DATUM
EEL.FT                              : ELEVATION
LMF.FT                              : LOG MEASURED FROM
DMF.FT                              : DRILLING MEASURED FROM
EKB.FT                              : KB
EDF.FT                              : DF
EGL.FT                              : GL
DATE1.                              : DATE1
RUN1.                               : RUN NUMBER
TDD1.FT                             : DEPTH DRILLER
TDL1.FT                             : DEPTH LOGGER
BLI1.FT                             : BOTTOM LOGGED INTERVAL
TLI1.FT                             : TOP LOG INTERVAL
CDD1.IN_FT                          : CASING DRILLER
CDL1.FT                             : CASING LOGGER
BS1.IN                              : BIT SIZE
DFT1.                               : TYPE FLUID IN HOLE
DFDV1.GM/C3_CP                      : DENSITY/VISCOSITY
DFPL1.C3                            : PH/FLUID LOSS
MSS1.                               : SOURCE OF SAMPLE
RMT1.OHHM_DEGF                      : RM@MEASURED TEMP
RMFT1.OHMM_DEGF                     : RMF@MEASURED TEMP
RMCT1.OHMM_DEGF                     : RMC@MEASURED TEMP
RMFS1.                              : SOURCE OF RMF/RMC
RMBT1.OHMM_DEGF                     : RM@BHT
TCS1.                               : TIME CIRCULATION STOPPED
TLOB1.                              : TIME LOGGER ON BOTTOM
BHT1.DEGF                           : MAXIMUM RECORDED TEMPERATURE
LUN1.                               : EQUIPMENT NUMBER
LUL1.                               : LOCATION
ENGI1.                              : RECORDED BY
WITN1.                              : WITNESSED BY
COMW.                               : Common Well Name
~Curve Information
DEPT.M                   0 000 00 00: Depth
LSPD.M/MIN                         0: Line Speed
LTEN.LB                            0: Surface Line Tension
GR.GAPI                            0: Gamma Ray
CCL.                               0: Casing Collar Locator
QP.PSI                             0: Quartz Pressure
TEMP.DEGC                          0: Downhole Temperature
CWH.                               0: Capacitance Water Holdup
CWHC.CPS                           0: CWH Counts
ILS.RPS                            0: Flowmeter
QPSG.                              0: Specific Gravity from QP
CFS.RPS                            0: Flowmeter
FDIDEN.G/CC                        0: FDI Fluid Density
~Parameter Information
~A  Depth       LSPD        LTEN         GR         CCL          QP         TEMP        CWH         CWHC        ILS         QPSG        CFS        FDIDEN   
# ...
  2348.7888     10.0554    599.8709     18.8139  31810.0879   2518.5195     81.7599      1.0634  25934.5879      0.5468      1.1027      0.5358      1.1320
  2348.9412      9.9639    604.7959     19.1512  31753.5391   2518.7590     81.7656      1.0671  25905.8027      0.5253      1.1069      0.4208      1.1327
  2349.0936      9.8877    601.8409     19.9267  31838.8105   2518.9966     81.7680      1.0686  25894.4434      0.5122      1.1078      0.2803      1.1332
  2349.2460      9.8877    599.8709     20.6748  31791.6875   2519.2439     81.7732      1.0690  25891.3203      0.4933      1.0996      0.1940      1.1337
  2349.3984      9.9944    609.7209     20.6256  31776.4277   2519.4800     81.7768      1.0683  25896.3457      0.4723      1.1117      0.1429      1.1345
  2349.5508      9.9944    602.8259     19.5291  31715.3926   2519.7124     81.7749      1.0690  25891.3203      0.4496      1.1126      0.0970      1.1349
  2349.7032      9.9700    596.9159     18.1536  31853.5703   2519.9604     81.7749      1.0705  25878.9063      0.4486      1.1176      0.0843      1.1348
  2349.8556      9.9700    602.8259     17.6497  31894.2598   2520.2085     81.7839      1.0692  25889.2520      0.4463      1.1095      0.0723      1.1346
  2350.0080     10.1163    603.8109     18.3730  31848.7266   2520.4490     81.7886      1.0694  25888.1191      0.4410      1.1069      0.1112      1.1341
  2350.1604      9.9792    602.8259     19.5361  31873.2012   2520.6743     81.7886      1.0673  25904.6055      0.4521      1.0926      0.1365      1.1345
  2350.3128      9.9395    602.8259     19.9237  31860.3516   2520.9202     81.7910      1.0657  25916.6367      0.4435      1.0993      0.1994      1.1347
  2350.4652     10.0554    596.9159     19.0166  31886.0508   2521.1558     81.7954      1.0632  25936.6113      0.4502      1.1162      0.2731      1.1334
  2350.6176      9.9548    605.7809     17.4937  31868.4902   2521.4021     81.8009      1.0600  25961.6660      0.4693      1.1016      0.3123      1.1333
  2350.7700      9.9030    599.8709     16.3669  31763.9805   2521.6421     81.7981      1.0603  25958.8066      0.4835      1.1055      0.3273      1.1345
  2350.9224     10.0858    599.8709     15.9072  31730.1426   2521.8752     81.7971      1.0610  25953.3906      0.5075      1.0768      0.2835      1.1355
  2351.0748      9.9852    602.8259     15.8463  31831.0547   2522.1143     81.8122      1.0616  25948.6602      0.5295      1.1005      0.2596      1.1356
  2351.2272      9.9852    605.7809     16.1507  31892.9043   2522.3357     81.8035      1.0618  25947.4375      0.5335      1.1157      0.2597      1.1345
  2351.3796      9.9852    599.8709     16.8322  31796.4102   2522.5962     81.8051      1.0613  25951.1523      0.5323      1.1238      0.3406      1.1342
  2351.5320      9.9182    603.8109     17.3539  31827.7988   2522.8425     81.8128      1.0610  25953.8613      0.5336      1.1182      0.3894      1.1345
  2351.6844      9.9700    597.9009     17.2693  31823.1992   2523.0886     81.8122      1.0608  25954.9121      0.5423      1.1126      0.5072      1.1364
  2351.8368      9.9792    603.8109     17.1309  31853.1719   2523.3052     81.8128      1.0615  25949.5781      0.5578      1.1117      0.5834      1.1368
  2351.9892      9.9334    602.8259     17.7796  31781.3652   2523.5608     81.8122      1.0585  25973.3379      0.5673      1.1022      0.5903      1.1361
  2352.1416     10.1163    600.8559     19.0661  31752.6426   2523.8064     81.8160      1.0550  26000.9766      0.5759      1.1292      0.5190      1.1360
  2352.2940      9.9852    602.8259     19.9063  31713.8672   2524.0442     81.8193      1.0521  26022.9883      0.6023      1.1092      0.5009      1.1351
  2352.4464      9.9090    603.8109     19.5147  31744.7051   2524.2842     81.8264      1.0504  26036.8789      0.6087      1.1202      0.5156      1.1345
  2352.5988     10.0401    596.9159     18.2915  31829.8340   2524.5225     81.8264      1.0497  26042.3555      0.5874      1.1123      0.5531      1.1360
  2352.7512      9.9639    601.8409     17.2996  31802.2227   2524.7776     81.8228      1.0491  26046.4531      0.5713      1.1221      0.6330      1.1357
  2352.9036      9.9487    595.9308     17.1377  31768.7988   2525.0085     81.8327      1.0476  26058.7988      0.5550      1.1188      0.7225      1.1346
  2353.0560     10.0096    598.8859     17.5813  31748.0469   2525.2571     81.8297      1.0470  26063.2090      0.5186      1.0993      0.7522      1.1332
  2353.2084     10.0096    603.8109     18.0297  31867.1328   2525.4924     81.8297      1.0453  26076.4375      0.5176      1.1061      0.7167      1.1331
  2353.3608     10.0462    599.8709     18.2802  31819.6621   2525.7307     81.8335      1.0450  26078.6582      0.5099      1.1055      0.6475      1.1336
  2353.5132     10.0096    605.7809     18.8139  31860.3516   2525.9675     81.8365      1.0453  26076.4375      0.4991      1.1078      0.5613      1.1334
  2353.6656      9.9487    600.8559     19.8463  31817.8926   2526.2156     81.8345      1.0460  26071.0176      0.4830      1.0988      0.5119      1.1342
  2353.8180     10.1224    598.8859     20.5929  31910.6152   2526.4529     81.8406      1.0459  26072.0000      0.4600      1.1185      0.4950      1.1345
  2353.9704     10.0005    602.8259     20.2908  31933.5938   2526.6833     81.8422      1.0463  26069.0156      0.4535      1.1140      0.4722      1.1348
  2354.1228      9.9487    599.8709     19.2798  31840.8203   2526.9373     81.8477      1.0467  26065.2246      0.4442      1.1190      0.4135      1.1353
  2354.2752     10.1011    601.8409     18.4002  31835.9375   2527.1814     81.8459      1.0470  26063.0820      0.4139      1.1145      0.3788      1.1354
  2354.4276      9.9639    606.7659     18.0821  31801.9707   2527.4231     81.8502      1.0464  26067.9961      0.4007      1.1227      0.3506      1.1350
  2354.5800      9.8725    599.8709     18.3521  31860.3516   2527.6497     81.8459      1.0473  26060.9414      0.4032      1.1064      0.3268      1.1358
  2354.7324     10.0249    601.8409     19.0226  31866.7754   2527.9106     81.8548      1.0470  26063.2090      0.3918      1.0943      0.3154      1.1361
  2354.8848     10.0249    602.8259     19.7572  31831.6289   2528.1406     81.8525      1.0470  26063.0820      0.3818      1.1193      0.3212      1.1362
  2355.0372      9.9792    601.8409     20.3323  31852.2129   2528.3718     81.8524      1.0458  26072.3770      0.3994      1.0979      0.3567      1.1379
  2355.1896      9.9487    603.8109     20.8168  31890.8691   2528.6201     81.8592      1.0462  26069.7793      0.3869      1.1160      0.3868      1.1377
  2355.3420      9.9639    595.9308     21.3463  31877.7910   2528.8625     81.8598      1.0465  26067.5605      0.3877      1.1069      0.4102      1.1361
  2355.4944     10.0767    600.8559     21.8457  31845.9902   2529.1082     81.8619      1.0454  26075.9316      0.3945      1.1157      0.4262      1.1342
  2355.6468     10.0767    607.7510     22.0696  31827.7988   2529.3315     81.8598      1.0447  26081.0234      0.3930      1.1185      0.4590      1.1344
  2355.7992     10.0401    599.8709     21.7387  31817.2676   2529.5874     81.8639      1.0441  26086.1953      0.3990      1.1145      0.4701      1.1364
  2355.9516     10.1925    610.7060     20.7362  31795.7266   2529.8323     81.8690      1.0437  26089.0273      0.3927      1.1236      0.4587      1.1373
  2356.1040     10.0310    603.8109     19.4420  31842.9121   2530.0745     81.8690      1.0443  26084.7500      0.3981      1.1041      0.4600      1.1359
  2356.2564      9.8938    598.8859     18.6510  31873.2012   2530.3057     81.8708      1.0454  26075.4609      0.4122      1.0929      0.4613      1.1348
  2356.4088     10.0157    604.7959     18.8113  31845.9902   2530.5447     81.8671      1.0467  26065.3418      0.4112      1.0931      0.5100      1.1362
  2356.5612     10.0157    598.8859     19.3466  31838.8105   2530.7798     81.8761      1.0462  26069.2539      0.4213      1.0937      0.5471      1.1369
