~Version Information
VERS.                            2.0: CWLS Log ASCII STANDARD - VERSION 2.0
WRAP.                             NO: One line per depth step
~Well Information
STRT.M                        3.6576: START DEPTH
STOP.M                     2390.0892: STOP DEPTH
STEP.M                        0.1524: STEP
NULL.                      -999.2500: NULL VALUE
COMP.                               : COMPANY
WELL.                               : WELL
FLD.                                : FIELD
LOC.                                : LOCATION
DATE.                Wed Sep 11 08-05-24 2024: LOG DATE
SECT.                               : SECTION
TOWN.                               : TOWNSHIP
RANG.                               : RANGE
OS.                                 : OTHER SERVICES
PDAT.FT                             : PERMANENT DATUM
EEL.FT                              : ELEVATION
LMF.FT                              : LOG MEASURED FROM
DMF.FT                              : DRILLING MEASURED FROM
EKB.FT                              : KB
EDF.FT                              : DF
EGL.FT                              : GL
DATE1.                              : DATE1
RUN1.                               : RUN NUMBER
TDD1.FT                             : DEPTH DRILLER
TDL1.FT                             : DEPTH LOGGER
BLI1.FT                             : BOTTOM LOGGED INTERVAL
TLI1.FT                             : TOP LOG INTERVAL
CDD1.IN_FT                          : CASING DRILLER
CDL1.FT                             : CASING LOGGER
BS1.IN                              : BIT SIZE
DFT1.                               : TYPE FLUID IN HOLE
DFDV1.GM/C3_CP                      : DENSITY/VISCOSITY
DFPL1.C3                            : PH/FLUID LOSS
MSS1.                               : SOURCE OF SAMPLE
RMT1.OHHM_DEGF                      : RM@MEASURED TEMP
RMFT1.OHMM_DEGF                     : RMF@MEASURED TEMP
RMCT1.OHMM_DEGF                     : RMC@MEASURED TEMP
RMFS1.                              : SOURCE OF RMF/RMC
RMBT1.OHMM_DEGF                     : RM@BHT
TCS1.                               : TIME CIRCULATION STOPPED
TLOB1.                              : TIME LOGGER ON BOTTOM
BHT1.DEGF                           : MAXIMUM RECORDED TEMPERATURE
LUN1.                               : EQUIPMENT NUMBER
LUL1.                               : LOCATION
ENGI1.                              : RECORDED BY
WITN1.                              : WITNESSED BY
COMW.                               : Common Well Name
~Curve Information
DEPT.M                   0 000 00 00: Depth
LSPD.M/MIN                         0: Line Speed
LTEN.LB                            0: Surface Line Tension
GR.GAPI                            0: Gamma Ray
CCL.                               0: Casing Collar Locator
QP.PSI                             0: Quartz Pressure
TEMP.DEGC                          0: Downhole Temperature
CWH.                               0: Capacitance Water Holdup
CWHC.CPS                           0: CWH Counts
ILS.RPS                            0: Flowmeter
QPSG.                              0: Specific Gravity from QP
CFS.RPS                            0: Flowmeter
FDIDEN.G/CC                        0: FDI Fluid Density
~Parameter Information
~A  Depth       LSPD        LTEN         GR         CCL          QP         TEMP        CWH         CWHC        ILS         QPSG        CFS        FDIDEN   
# ...
   637.6416     58.8508    155.6329      9.3256  31646.7285    670.2497     71.1750      0.1791  32861.3281     14.9720      0.5616     22.5130      0.3155
   637.7940     58.8508    156.6179     11.5867  31494.1406    670.3516     71.1557      0.1822  32836.9141     14.9302      0.5503     22.3379      0.3098
   637.9464     58.8508    156.6179     14.5348  31677.2461    670.4492     71.1557      0.1822  32836.9141     14.9814      0.5238     22.3480      0.3035
   638.0988     58.8508    157.6029     17.3034  31555.1758    670.5714     71.1943      0.1807  32849.1211     15.0461      0.5221     22.3229      0.2972
   638.2512     58.6892    157.6029     18.9583  31860.3516    670.7038     71.1750      0.1822  32836.9141     15.1651      0.5595     22.2784      0.2868
   638.4036     58.6892    157.6029     19.8110  31951.9043    670.8043     71.1750      0.1803  32852.1719     15.1962      0.5248     22.1918      0.2971
   638.5560     58.6892    157.6029     20.2721  31616.2109    670.9343     71.1750      0.1822  32836.9141     15.1252      0.5387     22.0741      0.3157
   638.7084     58.6892    157.6029     19.6514  31799.3164    671.0264     71.1943      0.1822  32836.9141     15.1566      0.5392     22.0404      0.3210
   638.8608     58.6892    156.6179     17.6248  31677.2461    671.1708     71.1750      0.1803  32852.1719     15.1398      0.4815     22.0548      0.3168
   639.0132     58.6892    156.6179     15.6633  31982.4219    671.2718     71.1750      0.1838  32824.7070     15.1855      0.5645     22.0162      0.3105
   639.1656     58.6892    158.5879     15.3956  31677.2461    671.3518     71.1750      0.1822  32836.9141     15.1655      0.5170     22.0621      0.3052
   639.3180     59.2379    157.6029     16.5119  31921.3867    671.5158     71.1943      0.1807  32849.1211     15.1672      0.5019     22.0279      0.3069
   639.4704     59.2379    157.6029     17.2219  31738.2813    671.6191     71.1888      0.1832  32829.2852     15.1894      0.5270     22.0813      0.3080
   639.6228     59.2379    158.5879     16.1857  31616.2109    671.7069     71.1750      0.1822  32836.9141     15.1313      0.5253     22.0734      0.3124
   639.7752     59.2379    158.5879     13.6669  31738.2813    671.8087     71.1750      0.1822  32836.9141     15.0594      0.5109     22.1425      0.3214
   639.9276     59.2379    158.5879     10.8311  31616.2109    671.9713     71.1943      0.1822  32836.9141     15.0737      0.5334     22.0462      0.3229
   640.0800     59.2379    156.6179      8.2283  31982.4219    672.0621     71.1943      0.1822  32836.9141     15.0571      0.5395     22.0558      0.3207
   640.2324     59.1160    156.6179      5.6859  32104.4922    672.1694     71.1750      0.1822  32836.9141     15.0487      0.5113     22.0816      0.3174
   640.3848     59.1160    158.5879      3.4384  32104.4922    672.2765     71.1557      0.1803  32852.1719     15.0509      0.5392     22.0856      0.3114
   640.5372     59.1160    158.5879      2.4401  31616.2109    672.4146     71.1943      0.1822  32836.9141     15.0054      0.5006     22.0365      0.3140
   640.6896     59.1160    158.5879      3.6573  31585.6934    672.5296     71.1943      0.1822  32836.9141     14.9136      0.5336     22.0771      0.3181
   640.8420     59.1160    159.5729      7.2057  31616.2109    672.6034     71.1888      0.1822  32836.9141     15.0506      0.5017     22.0255      0.3201
   640.9944     59.1160    159.5729     11.7756  31799.3164    672.7391     71.2233      0.1822  32836.9141     15.0741      0.4995     22.0576      0.3236
   641.1468     58.6831    158.5879     15.3089  32043.4570    672.8495     71.1888      0.1822  32836.9141     15.1185      0.5216     22.0845      0.3236
   641.2992     58.6831    157.6029     16.7305  31799.3164    672.9626     71.1888      0.1822  32836.9141     15.1688      0.5088     22.2092      0.3162
   641.4516     58.6831    157.6029     16.4748  31880.6973    673.0557     71.1750      0.1822  32836.9141     15.0680      0.5196     22.1637      0.3156
   641.6040     58.6831    157.6029     15.5751  31494.1406    673.1803     71.2330      0.1842  32821.6563     15.0613      0.5088     22.2388      0.3218
   641.7564     58.6831    158.5879     15.0031  31799.3164    673.3000     71.1838      0.1822  32836.9141     15.1132      0.5478     22.2970      0.3270
   641.9088     58.6831    158.5879     15.0643  32135.0098    673.4038     71.1750      0.1835  32826.7422     15.0797      0.5203     22.2802      0.3255
   642.0612     58.6831    159.5729     14.8327  31860.3516    673.5306     71.1943      0.1822  32836.9141     15.0800      0.5054     22.2822      0.3265
   642.2136     59.6951    159.5729     13.4567  32257.0801    673.6314     71.2072      0.1803  32852.1719     15.0620      0.4980     22.0874      0.3251
   642.3660     59.6951    158.5879     11.8915  31921.3867    673.7382     71.2072      0.1842  32821.6563     14.9917      0.5069     22.0546      0.3255
   642.5184     59.6951    158.5879     11.8727  31524.6582    673.8356     71.2072      0.1833  32828.1953     15.0415      0.5654     21.9600      0.3274
   642.6708     59.6951    158.5879     13.7364  31433.1055    673.9701     71.2072      0.1822  32836.9141     15.0278      0.5381     21.9132      0.3297
   642.8232     59.6951    158.5879     15.9238  31982.4219    674.1216     71.2072      0.1822  32836.9141     14.9508      0.5364     21.9077      0.3283
   642.9756     59.6951    159.5729     16.3289  32165.5273    674.2047     71.2233      0.1822  32836.9141     14.9388      0.4822     21.9909      0.3198
   643.1280     59.6951    159.5729     14.4871  31860.3516    674.3007     71.2072      0.1822  32836.9141     14.8842      0.4763     22.1528      0.3166
   643.2804     59.1464    158.5879     12.1982  32043.4570    674.3881     71.2330      0.1822  32836.9141     14.9320      0.5000     22.2350      0.3181
   643.4328     59.1464    158.5879     11.5725  31555.1758    674.5345     71.2072      0.1822  32836.9141     15.0371      0.5010     22.3140      0.3150
   643.5852     59.1464    157.6029     12.9092  31524.6582    674.6382     71.2233      0.1822  32836.9141     15.0528      0.5226     22.2616      0.3159
   643.7376     59.1464    158.5879     14.7717  31860.3516    674.7350     71.2330      0.1822  32836.9141     15.0105      0.5258     22.1854      0.3243
   643.8900     59.1464    158.5879     15.8042  31799.3164    674.8412     71.1750      0.1838  32824.7070     14.9723      0.5423     22.2106      0.3322
   644.0424     59.1464    158.5879     15.6720  32287.5977    674.9904     71.2072      0.1838  32824.7070     14.9350      0.5168     22.1321      0.3285
   644.1948     58.9788    158.5879     14.2972  31585.6934    675.1084     71.2233      0.1842  32821.6563     14.7913      0.5375     22.0914      0.3204
   644.3472     58.9788    159.5729     11.7211  31494.1406    675.1831     71.2072      0.1838  32824.7070     14.8322      0.5242     22.0332      0.3259
   644.4996     58.9788    159.5729      8.8914  31402.5879    675.3072     71.2072      0.1838  32824.7070     14.8906      0.4893     21.9636      0.3313
   644.6520     58.9788    159.5729      7.1695  31799.3164    675.4449     71.2716      0.1822  32836.9141     14.9172      0.5428     21.9711      0.3253
   644.8044     58.9788    159.5729      6.9558  32104.4922    675.5327     71.2233      0.1822  32836.9141     14.9714      0.5090     21.9720      0.3146
   644.9568     58.9788    159.5729      7.5321  31941.7324    675.6537     71.2330      0.1822  32836.9141     14.9170      0.4769     22.0691      0.3106
   645.1092     59.3141    159.5729      7.9988  31982.4219    675.7485     71.2233      0.1807  32849.1211     14.9002      0.4882     22.0743      0.3105
   645.2616     59.3141    158.5879      7.9699  31433.1055    675.8583     71.2233      0.1842  32821.6563     14.9263      0.4888     22.2123      0.3154
   645.4140     59.3141    158.5879      7.9568  31738.2813    675.9559     71.2233      0.1845  32819.4766     14.8890      0.5193     22.2389      0.3208
