~Version Information
VERS.                            2.0: CWLS Log ASCII STANDARD - VERSION 2.0
WRAP.                             NO: One line per depth step
~Well Information
STRT.M                     2229.9168: START DEPTH
STOP.M                     2385.0600: STOP DEPTH
STEP.M                        0.1524: STEP
NULL.                      -999.2500: NULL VALUE
COMP.                               : COMPANY
WELL.                               : WELL
FLD.                                : FIELD
LOC.                                : LOCATION
DATE.                Wed Sep 11 12-22-31 2024: LOG DATE
SECT.                               : SECTION
TOWN.                               : TOWNSHIP
RANG.                               : RANGE
OS.                                 : OTHER SERVICES
PDAT.FT                             : PERMANENT DATUM
EEL.FT                              : ELEVATION
LMF.FT                              : LOG MEASURED FROM
DMF.FT                              : DRILLING MEASURED FROM
EKB.FT                              : KB
EDF.FT                              : DF
EGL.FT                              : GL
DATE1.                              : DATE1
RUN1.                               : RUN NUMBER
TDD1.FT                             : DEPTH DRILLER
TDL1.FT                             : DEPTH LOGGER
BLI1.FT                             : BOTTOM LOGGED INTERVAL
TLI1.FT                             : TOP LOG INTERVAL
CDD1.IN_FT                          : CASING DRILLER
CDL1.FT                             : CASING LOGGER
BS1.IN                              : BIT SIZE
DFT1.                               : TYPE FLUID IN HOLE
DFDV1.GM/C3_CP                      : DENSITY/VISCOSITY
DFPL1.C3                            : PH/FLUID LOSS
MSS1.                               : SOURCE OF SAMPLE
RMT1.OHHM_DEGF                      : RM@MEASURED TEMP
RMFT1.OHMM_DEGF                     : RMF@MEASURED TEMP
RMCT1.OHMM_DEGF                     : RMC@MEASURED TEMP
RMFS1.                              : SOURCE OF RMF/RMC
RMBT1.OHMM_DEGF                     : RM@BHT
TCS1.                               : TIME CIRCULATION STOPPED
TLOB1.                              : TIME LOGGER ON BOTTOM
BHT1.DEGF                           : MAXIMUM RECORDED TEMPERATURE
LUN1.                               : EQUIPMENT NUMBER
LUL1.                               : LOCATION
ENGI1.                              : RECORDED BY
WITN1.                              : WITNESSED BY
COMW.                               : Common Well Name
~Curve Information
DEPT.M                   0 000 00 00: Depth
LSPD.M/MIN                         0: Line Speed
LTEN.LB                            0: Surface Line Tension
GR.GAPI                            0: Gamma Ray
CCL.                               0: Casing Collar Locator
QP.PSI                             0: Quartz Pressure
TEMP.DEGC                          0: Downhole Temperature
CWH.                               0: Capacitance Water Holdup
CWHC.CPS                           0: CWH Counts
ILS.RPS                            0: Flowmeter
QPSG.                              0: Specific Gravity from QP
CFS.RPS                            0: Flowmeter
FDIDEN.G/CC                        0: FDI Fluid Density
~Parameter Information
~A  Depth       LSPD        LTEN         GR         CCL          QP         TEMP        CWH         CWHC        ILS         QPSG        CFS        FDIDEN   
# ...
  2332.9392      9.8633    599.8709     29.3413  31738.2813   2494.0410     81.2439      0.6571  29117.0996      0.8586      1.0078      0.5660      0.9685
  2333.0916      9.9487    597.9009     25.5871  31841.5723   2494.2673     81.2408      0.8004  27994.7910      0.8318      0.8158      0.5248      0.9981
  2333.2440      9.9182    600.8559     22.9134  31860.3516   2494.4866     81.2505      0.9500  26823.3457      0.8132      1.0270      0.5465      1.0030
  2333.3964      9.9487    598.8859     22.6936  31730.1426   2494.7070     81.2955      0.9404  26898.5527      0.8216      1.0163      0.5835      1.0080
  2333.5488     10.0706    599.8709     24.3783  31821.8027   2494.9314     81.3366      0.9453  26859.7520      0.8251      1.0267      0.6556      1.0116
  2333.7012      9.9243    601.8409     26.3217  31824.4492   2495.1484     81.3516      0.9560  26776.2305      0.7904      1.0385      0.5805      1.0123
  2333.8536      9.8725    596.9159     27.1970  31784.0586   2495.3767     81.3651      0.9666  26692.7090      0.7491      1.0405      0.6026      1.0168
  2334.0060     10.0706    601.8409     26.8215  31753.5391   2495.6074     81.3709      0.9630  26720.9844      0.7188      1.0408      0.5506      1.0168
  2334.1584      9.9944    606.7659     25.6567  31799.3164   2495.8335     81.3709      0.9352  26939.2422      0.7152      1.0340      0.5381      1.0090
  2334.3108      9.9182    597.9009     23.7026  31822.2051   2496.0508     81.3696      0.9270  27003.2383      0.6924      1.0456      0.4903      1.0089
  2334.4632     10.0249    600.8559     20.8157  31829.8340   2496.2732     81.3709      0.9511  26814.7793      0.7004      1.0526      0.5203      1.0358
  2334.6156     10.0249    599.8709     17.7679  31819.6621   2496.5139     81.3762      0.9841  26555.6465      0.6809      1.0709      0.5239      1.0690
  2334.7680      9.9792    603.8109     15.6343  31799.3164   2496.7461     81.3983      0.9791  26595.3184      0.6888      1.0726      0.4757      1.0804
  2334.9204      9.9852    603.8109     14.6792  31848.1445   2496.9792     81.4225      1.0048  26393.8203      0.7218      1.0824      0.5136      1.0862
  2335.0728      9.9182    600.8559     14.9772  31795.7266   2497.2031     81.4424      0.9882  26523.5234      0.7373      1.0799      0.5304      1.0873
  2335.2252      9.9395    602.8259     17.0970  31795.7266   2497.4524     81.4716      1.0073  26374.3672      0.7359      1.0765      0.5709      1.0850
  2335.3776      9.8572    604.7959     20.9948  31838.8105   2497.6824     81.4964      1.0034  26404.9180      0.7224      1.0881      0.5515      1.0838
  2335.5300      9.8024    596.9159     24.9702  31795.2480   2497.9126     81.5010      1.0018  26417.4512      0.7237      1.0667      0.6094      1.0832
  2335.6824     10.0157    603.8109     26.8217  31817.2676   2498.1465     81.5085      0.9960  26462.6250      0.7425      1.0757      0.6663      1.0829
  2335.8348      9.9700    601.8409     25.9939  31799.3164   2498.3772     81.5078      0.9920  26493.8633      0.7939      1.0723      0.6669      1.0860
  2335.9872      9.9090    601.8409     23.7971  31811.5234   2498.6150     81.5147      1.0082  26367.1875      0.8589      1.0771      0.6345      1.0876
  2336.1396      9.9944    603.8109     21.7065  31808.9531   2498.8423     81.5207      0.9884  26522.3613      0.8967      1.0909      0.5740      1.0928
  2336.2920      9.9548    600.8559     20.3794  31822.2051   2499.0803     81.5284      0.9947  26472.7051      0.9375      1.0768      0.6156      1.0961
  2336.4444      9.9548    604.7959     19.8619  31873.2012   2499.3230     81.5357      0.9900  26509.9473      0.9644      1.0898      0.6586      1.0884
  2336.5968      9.9243    601.8409     19.9062  31829.8340   2499.5486     81.5352      0.9901  26509.2324      0.9890      1.0754      0.7219      1.0753
  2336.7492      9.9548    598.8859     20.4386  31829.8340   2499.7871     81.5548      1.0016  26418.5859      0.9957      1.0701      0.7640      1.0724
  2336.9016     10.0005    603.8109     21.5587  31837.4629   2500.0127     81.5695      1.0024  26412.6641      0.9849      1.0793      0.8346      1.0730
  2337.0540      9.9639    601.8409     22.9705  31819.6621   2500.2507     81.5763      1.0133  26327.2363      0.9765      1.0782      0.8798      1.0706
  2337.2064      9.9182    599.8709     24.9521  31776.4277   2500.4844     81.5799      0.9904  26506.3906      0.9761      1.1002      0.9019      1.0682
  2337.3588     10.0310    603.8109     30.2778  31814.5742   2500.7219     81.5813      1.0062  26382.7246      0.9691      1.0889      0.8498      1.0626
  2337.5112      9.9700    597.9009     43.5154  31841.0781   2500.9666     81.5879      1.0032  26406.4980      0.9443      1.0847      0.8864      1.0652
  2337.6636      9.9487    610.7060     67.7077  31824.4492   2501.1948     81.5879      0.9691  26673.5605      0.9553      1.0886      0.9149      1.0743
  2337.8160     10.0919    596.9159    101.5934  31874.7129   2501.4248     81.5813      0.9359  26933.1504      0.9189      1.0898      0.9358      1.0845
  2337.9684      9.9700    596.9159    139.3850  31814.5742   2501.6658     81.5860      1.0274  26216.3945      0.8804      1.0931      0.9693      1.0983
  2338.1208      9.8633    600.8559    173.1811  31805.4199   2501.9114     81.6037      1.0247  26238.2070      0.8448      1.1050      0.9909      1.1055
  2338.2732      9.8115    599.8709    196.1731  31829.8340   2502.1426     81.6174      1.0373  26139.1699      0.8010      1.0875      0.9975      1.1055
  2338.4256      9.8115    603.8109    204.0070  31799.3164   2502.3828     81.6210      1.0351  26156.3379      0.7510      1.0889      1.0472      1.1075
  2338.5780      9.8633    607.7510    194.1247  31745.0625   2502.6086     81.6241      1.0284  26209.0957      0.7240      1.0976      1.0167      1.1076
  2338.7304      9.9182    597.9009    166.5585  31816.7559   2502.8555     81.6311      1.0343  26162.9980      0.7199      1.0945      0.9623      1.1060
  2338.8828      9.9243    606.7659    127.0986  31738.2813   2503.0942     81.6277      1.0322  26178.9102      0.7161      1.1016      0.9335      1.1077
  2339.0352     10.0310    600.8559     86.7216  31814.5742   2503.3318     81.6277      1.0308  26189.8398      0.7087      1.0900      0.8640      1.1087
  2339.1876      9.8938    596.9159     54.9606  31819.6621   2503.5637     81.6342      1.0317  26183.0117      0.6941      1.0867      0.8874      1.1097
  2339.3400      9.8176    600.8559     34.8335  31829.8340   2503.8005     81.6419      1.0303  26194.4473      0.6626      1.0985      0.8371      1.1141
  2339.4924      9.8786    597.9009     24.1866  31814.5742   2504.0364     81.6541      1.0293  26202.2852      0.6743      1.1131      0.8255      1.1164
  2339.6448      9.9548    605.7809     19.4406  31829.8340   2504.2842     81.6632      1.0402  26116.6230      0.6641      1.1053      0.8421      1.1177
  2339.7972      9.9792    607.7510     17.7685  31765.4082   2504.5288     81.6632      1.0405  26113.8340      0.6563      1.0943      0.8906      1.1186
  2339.9496     10.0157    598.8859     17.5804  31903.4355   2504.7588     81.6755      1.0283  26209.9453      0.6380      1.0900      0.9309      1.1187
  2340.1020     10.0858    600.8559     17.9356  31799.3164   2504.9851     81.6774      1.0333  26170.3809      0.6412      1.0827      0.9397      1.1188
  2340.2544     10.0858    600.8559     17.9056  31840.0059   2505.2292     81.6805      1.0317  26183.0469      0.6344      1.0934      1.0082      1.1192
  2340.4068      9.9548    598.8859     16.8921  31753.5391   2505.4675     81.6859      1.0418  26103.8984      0.6423      1.1002      0.9997      1.1193
  2340.5592      9.8786    602.8259     15.2400  31849.2539   2505.7068     81.6938      1.0408  26111.9492      0.6496      1.1016      1.0028      1.1171
  2340.7116      9.9243    599.8709     13.8568  31806.0977   2505.9390     81.6927      1.0311  26187.5371      0.6320      1.0881      0.9816      1.1184
