~Version Information
VERS.                            2.0: CWLS Log ASCII STANDARD - VERSION 2.0
WRAP.                             NO: One line per depth step
~Well Information
STRT.M                        3.6576: START DEPTH
STOP.M                     2390.0892: STOP DEPTH
STEP.M                        0.1524: STEP
NULL.                      -999.2500: NULL VALUE
COMP.                               : COMPANY
WELL.                               : WELL
FLD.                                : FIELD
LOC.                                : LOCATION
DATE.                Wed Sep 11 08-05-24 2024: LOG DATE
SECT.                               : SECTION
TOWN.                               : TOWNSHIP
RANG.                               : RANGE
OS.                                 : OTHER SERVICES
PDAT.FT                             : PERMANENT DATUM
EEL.FT                              : ELEVATION
LMF.FT                              : LOG MEASURED FROM
DMF.FT                              : DRILLING MEASURED FROM
EKB.FT                              : KB
EDF.FT                              : DF
EGL.FT                              : GL
DATE1.                              : DATE1
RUN1.                               : RUN NUMBER
TDD1.FT                             : DEPTH DRILLER
TDL1.FT                             : DEPTH LOGGER
BLI1.FT                             : BOTTOM LOGGED INTERVAL
TLI1.FT                             : TOP LOG INTERVAL
CDD1.IN_FT                          : CASING DRILLER
CDL1.FT                             : CASING LOGGER
BS1.IN                              : BIT SIZE
DFT1.                               : TYPE FLUID IN HOLE
DFDV1.GM/C3_CP                      : DENSITY/VISCOSITY
DFPL1.C3                            : PH/FLUID LOSS
MSS1.                               : SOURCE OF SAMPLE
RMT1.OHHM_DEGF                      : RM@MEASURED TEMP
RMFT1.OHMM_DEGF                     : RMF@MEASURED TEMP
RMCT1.OHMM_DEGF                     : RMC@MEASURED TEMP
RMFS1.                              : SOURCE OF RMF/RMC
RMBT1.OHMM_DEGF                     : RM@BHT
TCS1.                               : TIME CIRCULATION STOPPED
TLOB1.                              : TIME LOGGER ON BOTTOM
BHT1.DEGF                           : MAXIMUM RECORDED TEMPERATURE
LUN1.                               : EQUIPMENT NUMBER
LUL1.                               : LOCATION
ENGI1.                              : RECORDED BY
WITN1.                              : WITNESSED BY
COMW.                               : Common Well Name
~Curve Information
DEPT.M                   0 000 00 00: Depth
LSPD.M/MIN                         0: Line Speed
LTEN.LB                            0: Surface Line Tension
GR.GAPI                            0: Gamma Ray
CCL.                               0: Casing Collar Locator
QP.PSI                             0: Quartz Pressure
TEMP.DEGC                          0: Downhole Temperature
CWH.                               0: Capacitance Water Holdup
CWHC.CPS                           0: CWH Counts
ILS.RPS                            0: Flowmeter
QPSG.                              0: Specific Gravity from QP
CFS.RPS                            0: Flowmeter
FDIDEN.G/CC                        0: FDI Fluid Density
~Parameter Information
~A  Depth       LSPD        LTEN         GR         CCL          QP         TEMP        CWH         CWHC        ILS         QPSG        CFS        FDIDEN   
# ...
   796.1376     58.8721    182.2280      9.6648  31951.9043    793.5000     72.4789      0.2009  32690.4297     12.2508      0.5690     20.3421      0.3769
   796.2900     58.8721    182.2280      7.9708  28472.9004    793.5765     72.4789      0.2037  32669.0664     12.2875      0.5695     20.4515      0.3801
   796.4424     58.8721    181.2430      6.1251  31402.5879    793.7731     72.4693      0.2017  32684.3262     12.2635      0.6196     20.5845      0.3816
   796.5948     58.8721    181.2430      4.9832  31768.7988    793.9017     72.4307      0.2015  32686.1211     12.2604      0.6866     20.5961      0.3762
   796.7472     58.8721    181.2430      4.5071  31921.3867    794.0372     72.4789      0.2025  32678.2227     12.2186      0.5807     20.5595      0.3705
   796.8996     58.8721    181.2430      4.7178  31636.5566    794.1718     72.4693      0.2037  32669.0664     12.2034      0.5862     20.5336      0.3764
   797.0520     59.1007    181.2430      5.6637  31555.1758    794.2766     72.4521      0.2017  32684.3262     12.1199      0.5464     20.3729      0.3759
   797.2044     59.1007    181.2430      7.0257  32043.4570    794.4099     72.4789      0.2027  32676.6973     12.1911      0.5244     20.2906      0.3727
   797.3568     59.1007    181.2430      8.5441  31982.4219    794.5109     72.4789      0.1998  32699.5859     12.2165      0.5626     20.2314      0.3731
   797.5092     59.1007    182.2280     10.3118  31799.3164    794.6265     72.5079      0.2000  32697.4043     12.1697      0.5790     20.2297      0.3788
   797.6616     59.1007    181.2430     12.4402  31860.3516    794.7644     72.4789      0.2009  32690.4297     12.1818      0.5731     20.3000      0.3796
   797.8140     59.1007    181.2430     14.7960  31616.2109    794.9119     72.4693      0.2027  32676.6973     12.2347      0.5960     20.4485      0.3815
   797.9664     59.1312    181.2430     16.7463  32135.0098    795.0078     72.5272      0.2045  32662.5273     12.2332      0.6059     20.4032      0.3856
   798.1188     59.1312    181.2430     17.2527  31860.3516    795.1432     72.4693      0.2037  32669.0664     12.1837      0.5404     20.3656      0.3907
   798.2712     59.1312    181.2430     16.1863  31921.3867    795.2897     72.4789      0.2017  32684.3262     12.2330      0.5721     20.4093      0.3849
   798.4236     59.1312    181.2430     15.0082  31799.3164    795.3804     72.4789      0.2023  32679.9668     12.1933      0.5544     20.4504      0.3733
   798.5760     59.1312    181.2430     14.8796  31341.5527    795.5037     72.4693      0.2037  32669.0664     12.1829      0.5183     20.4983      0.3739
   798.7284     59.1312    181.2430     14.8969  31646.7285    795.6238     72.5079      0.2017  32684.3262     12.2396      0.5514     20.5077      0.3719
   798.8808     59.1312    182.2280     13.4148  31738.2813    795.7391     72.4950      0.2023  32679.9668     12.2320      0.5510     20.4470      0.3724
   799.0332     59.0184    182.2280     10.5142  32104.4922    795.8585     72.5272      0.2017  32684.3262     12.3105      0.5724     20.4536      0.3786
   799.1856     59.0184    181.2430      8.2709  32012.9395    795.9814     72.4693      0.2030  32674.1543     12.2855      0.6078     20.3881      0.3758
   799.3380     59.0184    181.2430      8.4313  31982.4219    796.1201     72.4789      0.2013  32687.7168     12.3024      0.6269     20.3156      0.3722
   799.4904     59.0184    181.2430     10.2664  31738.2813    796.2661     72.4858      0.2009  32690.4297     12.2375      0.5963     20.2455      0.3698
   799.6428     59.0184    182.2280     11.5619  31677.2461    796.4020     72.4789      0.2025  32678.2227     12.3106      0.5703     20.2075      0.3691
   799.7952     59.0184    182.2280     11.4207  31595.8652    796.4985     72.4789      0.2045  32662.5273     12.2797      0.5881     20.1328      0.3730
   799.9476     59.8627    183.2131     10.7812  31921.3867    796.6146     72.4950      0.2040  32666.0156     12.4026      0.5454     20.2166      0.3793
   800.1000     59.8627    182.2280     10.6008  32135.0098    796.7759     72.5134      0.2043  32663.9805     12.4868      0.5902     20.1306      0.3738
   800.2524     59.8627    182.2280     11.1273  31860.3516    796.8749     72.4789      0.2017  32684.3262     12.4796      0.6105     20.1466      0.3734
   800.4048     59.8627    181.2430     12.4548  31494.1406    797.0102     72.5272      0.2040  32666.0156     12.4819      0.5578     20.1431      0.3784
   800.5572     59.8627    181.2430     14.1983  31372.0703    797.1439     72.4693      0.2025  32678.2227     12.5534      0.5614     20.3119      0.3849
   800.7096     59.8627    181.2430     15.2592  32165.5273    797.2596     72.5079      0.2035  32670.4551     12.4375      0.5753     20.3211      0.3843
   800.8620     59.8627    182.2280     15.0378  31951.9043    797.3616     72.4950      0.2025  32678.2227     12.5460      0.5388     20.3218      0.3812
   801.0144     59.4269    182.2280     13.9700  31890.8691    797.5090     72.4950      0.2025  32678.2227     12.4144      0.6199     20.3304      0.3780
   801.1668     59.4269    184.1981     12.5761  31921.3867    797.6110     72.5079      0.2017  32684.3262     12.4043      0.6261     20.4266      0.3684
   801.3192     59.4269    184.1981     10.9192  31982.4219    797.7971     72.4950      0.2030  32674.1543     12.3566      0.5633     20.4500      0.3663
   801.4716     59.4269    184.1981      8.9548  31463.6230    797.9044     72.5134      0.2056  32653.8086     12.4333      0.5982     20.3486      0.3715
   801.6240     59.4269    184.1981      6.9560  31524.6582    797.9973     72.5466      0.2037  32669.0664     12.3293      0.5166     20.3310      0.3745
   801.7764     59.4269    185.1831      5.5096  31738.2813    798.1296     72.4950      0.2040  32666.0156     12.2993      0.5205     20.3187      0.3686
   801.9288     58.8721    185.1831      4.9933  32165.5273    798.2449     72.5134      0.2056  32653.8086     12.2483      0.6066     20.1533      0.3742
   802.0812     58.8721    184.1981      5.2465  31951.9043    798.3557     72.5272      0.2017  32684.3262     12.1777      0.6240     20.1588      0.3876
   802.2336     58.8721    184.1981      5.9055  31860.3516    798.5233     72.5079      0.2025  32678.2227     12.2010      0.5897     20.1598      0.3817
   802.3860     58.8721    184.1981      6.7921  31433.1055    798.6707     72.5380      0.2040  32666.0156     12.3562      0.5878     20.2155      0.3672
   802.5384     58.8721    184.1981      7.8488  31799.3164    798.7562     72.4950      0.2045  32662.5273     12.3048      0.5535     20.2622      0.3605
   802.6908     58.8721    182.2280      8.8980  31773.1582    798.8653     72.5272      0.2025  32678.2227     12.3670      0.5489     20.3099      0.3649
   802.8432     58.8721    182.2280      9.8193  31707.7637    799.0031     72.5380      0.2037  32669.0664     12.3351      0.5749     20.3864      0.3662
   802.9956     59.3446    182.2280     10.8411  32135.0098    799.1465     72.5079      0.2025  32678.2227     12.4859      0.5871     20.3376      0.3573
   803.1480     59.3446    181.2430     12.0381  31860.3516    799.2546     72.5272      0.2045  32662.5273     12.4656      0.5748     20.3184      0.3578
   803.3004     59.3446    181.2430     13.0230  31890.8691    799.3743     72.5380      0.2037  32669.0664     12.4850      0.5838     20.1690      0.3601
   803.4528     59.3446    182.2280     13.7114  31677.2461    799.5015     72.5466      0.2056  32653.8086     12.4695      0.5847     20.1570      0.3702
   803.6052     59.3446    182.2280     14.4416  31941.7324    799.6527     72.5272      0.2017  32684.3262     12.5317      0.5721     20.1470      0.3822
   803.7576     59.3446    182.2280     14.8615  31738.2813    799.7615     72.5466      0.2037  32669.0664     12.5518      0.6229     20.0817      0.3851
   803.9100     59.2013    183.2131     13.9454  31982.4219    799.8703     72.5079      0.2040  32666.0156     12.5176      0.6073     20.0476      0.3810
