~Version Information
VERS.                            2.0: CWLS Log ASCII STANDARD - VERSION 2.0
WRAP.                             NO: One line per depth step
~Well Information
STRT.M                        3.6576: START DEPTH
STOP.M                     2390.0892: STOP DEPTH
STEP.M                        0.1524: STEP
NULL.                      -999.2500: NULL VALUE
COMP.                               : COMPANY
WELL.                               : WELL
FLD.                                : FIELD
LOC.                                : LOCATION
DATE.                Wed Sep 11 08-05-24 2024: LOG DATE
SECT.                               : SECTION
TOWN.                               : TOWNSHIP
RANG.                               : RANGE
OS.                                 : OTHER SERVICES
PDAT.FT                             : PERMANENT DATUM
EEL.FT                              : ELEVATION
LMF.FT                              : LOG MEASURED FROM
DMF.FT                              : DRILLING MEASURED FROM
EKB.FT                              : KB
EDF.FT                              : DF
EGL.FT                              : GL
DATE1.                              : DATE1
RUN1.                               : RUN NUMBER
TDD1.FT                             : DEPTH DRILLER
TDL1.FT                             : DEPTH LOGGER
BLI1.FT                             : BOTTOM LOGGED INTERVAL
TLI1.FT                             : TOP LOG INTERVAL
CDD1.IN_FT                          : CASING DRILLER
CDL1.FT                             : CASING LOGGER
BS1.IN                              : BIT SIZE
DFT1.                               : TYPE FLUID IN HOLE
DFDV1.GM/C3_CP                      : DENSITY/VISCOSITY
DFPL1.C3                            : PH/FLUID LOSS
MSS1.                               : SOURCE OF SAMPLE
RMT1.OHHM_DEGF                      : RM@MEASURED TEMP
RMFT1.OHMM_DEGF                     : RMF@MEASURED TEMP
RMCT1.OHMM_DEGF                     : RMC@MEASURED TEMP
RMFS1.                              : SOURCE OF RMF/RMC
RMBT1.OHMM_DEGF                     : RM@BHT
TCS1.                               : TIME CIRCULATION STOPPED
TLOB1.                              : TIME LOGGER ON BOTTOM
BHT1.DEGF                           : MAXIMUM RECORDED TEMPERATURE
LUN1.                               : EQUIPMENT NUMBER
LUL1.                               : LOCATION
ENGI1.                              : RECORDED BY
WITN1.                              : WITNESSED BY
COMW.                               : Common Well Name
~Curve Information
DEPT.M                   0 000 00 00: Depth
LSPD.M/MIN                         0: Line Speed
LTEN.LB                            0: Surface Line Tension
GR.GAPI                            0: Gamma Ray
CCL.                               0: Casing Collar Locator
QP.PSI                             0: Quartz Pressure
TEMP.DEGC                          0: Downhole Temperature
CWH.                               0: Capacitance Water Holdup
CWHC.CPS                           0: CWH Counts
ILS.RPS                            0: Flowmeter
QPSG.                              0: Specific Gravity from QP
CFS.RPS                            0: Flowmeter
FDIDEN.G/CC                        0: FDI Fluid Density
~Parameter Information
~A  Depth       LSPD        LTEN         GR         CCL          QP         TEMP        CWH         CWHC        ILS         QPSG        CFS        FDIDEN   
# ...
  1747.1136     57.5097    340.8141      8.3921  31738.2813   1721.5616     78.4964      0.3114  31825.4746     10.0328      0.7751     15.3748      0.7157
  1747.2660     57.5097    339.8291      8.9413  31921.3867   1721.7458     78.5351      0.3100  31835.9375     10.0857      0.7832     15.4127      0.7172
  1747.4184     57.5097    339.8291      9.6673  31860.3516   1721.9124     78.5158      0.3116  31823.7305     10.1129      0.7723     15.3507      0.7146
  1747.5708     57.1744    339.8291     11.4804  31860.3516   1722.0707     78.5351      0.3086  31846.7891     10.1684      0.7618     15.2952      0.7161
  1747.7232     57.1744    338.8441     14.1347  31616.2109   1722.2312     78.5351      0.3108  31829.8340     10.1575      0.7511     15.3705      0.7176
  1747.8756     57.1744    339.8291     15.7580  31890.8691   1722.4064     78.5351      0.3108  31829.8340     10.1961      0.7438     15.2544      0.7188
  1748.0280     57.1744    339.8291     15.4953  31799.3164   1722.5636     78.5158      0.3121  31819.6621     10.1946      0.8218     15.2647      0.7179
  1748.1804     57.1744    339.8291     14.4330  31677.2461   1722.7156     78.5641      0.3108  31829.8340     10.2360      0.7348     15.2791      0.7178
  1748.3328     57.1744    339.8291     13.5890  31616.2109   1722.9437     78.5351      0.3116  31823.7305     10.2700      0.7393     15.3104      0.7160
  1748.4852     57.1744    339.8291     13.2247  31677.2461   1723.0435     78.5351      0.3121  31819.6621     10.2890      0.7671     15.3173      0.7123
  1748.6376     57.0525    339.8291     13.3581  31951.9043   1723.2046     78.5158      0.3118  31822.2051     10.2821      0.7790     15.2789      0.7112
  1748.7900     57.0525    339.8291     13.4952  31921.3867   1723.3806     78.5296      0.3108  31829.8340     10.2864      0.7862     15.3280      0.7158
  1748.9424     57.0525    340.8141     12.9827  31799.3164   1723.6191     78.5351      0.3116  31823.7305     10.2533      0.7952     15.3635      0.7172
  1749.0948     57.0525    340.8141     11.8352  31890.8691   1723.7251     78.5351      0.3116  31823.7305     10.3301      0.7696     15.3489      0.7153
  1749.2472     57.0525    340.8141     10.3401  31616.2109   1723.8940     78.5296      0.3114  31825.4746     10.2490      0.6993     15.3534      0.7136
  1749.3996     57.0525    339.8291      8.6254  31738.2813   1724.0479     78.5641      0.3100  31835.9375     10.3192      0.7733     15.4207      0.7158
  1749.5520     57.8907    340.8141      7.1464  31860.3516   1724.2255     78.5480      0.3108  31829.8340     10.2963      0.7724     15.4624      0.7143
  1749.7044     57.8907    340.8141      6.7583  31860.3516   1724.3955     78.5737      0.3126  31815.9629     10.3333      0.8359     15.4646      0.7118
  1749.8568     57.8907    339.8291      7.7874  31921.3867   1724.5637     78.5158      0.3116  31823.7305     10.3027      0.8123     15.4743      0.7144
  1750.0092     57.8907    339.8291      9.5417  31921.3867   1724.7726     78.5351      0.3116  31823.7305     10.2471      0.7716     15.4632      0.7167
  1750.1616     57.8907    339.8291     11.2420  31860.3516   1724.9297     78.5399      0.3121  31819.6621     10.2534      0.7630     15.4614      0.7175
  1750.3140     57.8907    339.8291     12.7351  31799.3164   1725.0645     78.5158      0.3108  31829.8340     10.2736      0.7740     15.5397      0.7203
  1750.4664     57.1287    339.8291     13.6696  31860.3516   1725.2252     78.5158      0.3116  31823.7305     10.2555      0.7658     15.5614      0.7167
  1750.6188     57.1287    339.8291     13.2141  31677.2461   1725.4436     78.5351      0.3121  31819.6621     10.3228      0.7980     15.5836      0.7139
  1750.7712     57.1287    339.8291     11.4341  31677.2461   1725.5936     78.5572      0.3116  31823.7305     10.3162      0.7930     15.5934      0.7125
  1750.9236     57.1287    339.8291      9.7504  31677.2461   1725.7563     78.5848      0.3100  31835.9375     10.3453      0.7590     15.6113      0.7144
  1751.0760     57.1287    341.7991      9.2902  32165.5273   1725.9127     78.5641      0.3127  31814.5742     10.2822      0.7685     15.6223      0.7177
  1751.2284     57.1287    339.8291      9.6500  31860.3516   1726.1017     78.5351      0.3108  31829.8340     10.4100      0.7724     15.5997      0.7169
  1751.3808     56.6562    339.8291      9.9324  31677.2461   1726.2599     78.5597      0.3131  31811.5234     10.3355      0.8032     15.6258      0.7161
  1751.5332     56.6562    340.8141     10.2803  31921.3867   1726.4260     78.5737      0.3108  31829.8340     10.2973      0.7892     15.6418      0.7196
  1751.6856     56.6562    340.8141     11.5866  31921.3867   1726.6091     78.5351      0.3131  31811.5234     10.3381      0.7920     15.6493      0.7185
  1751.8380     56.6562    340.8141     14.2188  32043.4570   1726.7859     78.5555      0.3108  31829.8340     10.3487      0.8177     15.5925      0.7156
  1751.9904     56.6562    340.8141     17.2500  31951.9043   1726.9465     78.5351      0.3121  31819.6621     10.3935      0.8121     15.5851      0.7165
  1752.1428     56.6562    340.8141     18.9199  31677.2461   1727.1350     78.5737      0.3121  31819.6621     10.4230      0.7741     15.6366      0.7187
  1752.2952     56.8696    339.8291     18.3932  32836.9141   1727.3132     78.5480      0.3116  31823.7305     10.4010      0.7955     15.5854      0.7169
  1752.4476     56.8696    338.8441     16.8413  31951.9043   1727.4570     78.5641      0.3100  31835.9375     10.4164      0.7787     15.5929      0.7164
  1752.6000     56.8696    338.8441     16.1344  31677.2461   1727.6362     78.5351      0.3127  31814.5742     10.3319      0.7747     15.5809      0.7165
  1752.7524     56.8696    339.8291     16.6348  31677.2461   1727.8102     78.5351      0.3131  31811.5234     10.3257      0.7848     15.5127      0.7168
  1752.9048     56.8696    341.7991     16.9794  31799.3164   1727.9849     78.5351      0.3116  31823.7305     10.2953      0.7742     15.4377      0.7164
  1753.0572     56.8696    341.7991     16.2448  31921.3867   1728.1375     78.5572      0.3108  31829.8340     10.2841      0.7851     15.4249      0.7195
  1753.2096     56.8696    341.7991     15.1047  31860.3516   1728.3075     78.5737      0.3091  31842.9121     10.1989      0.8070     15.4037      0.7196
  1753.3620     57.0829    339.8291     14.2824  31951.9043   1728.4908     78.5351      0.3108  31829.8340     10.2054      0.7917     15.4383      0.7179
  1753.5144     57.0829    339.8291     13.5628  31677.2461   1728.6846     78.5380      0.3131  31811.5234     10.2244      0.7959     15.4274      0.7188
  1753.6668     57.0829    339.8291     12.7726  31646.7285   1728.8239     78.5641      0.3121  31819.6621     10.1477      0.7854     15.4119      0.7191
  1753.8192     57.0829    339.8291     12.0301  31758.6270   1728.9976     78.5641      0.3108  31829.8340     10.1283      0.7709     15.4551      0.7193
  1753.9716     57.0829    339.8291     11.1585  31982.4219   1729.1718     78.5351      0.3116  31823.7305     10.1867      0.7600     15.4691      0.7220
  1754.1240     57.0829    339.8291     10.0011  31982.4219   1729.3529     78.5848      0.3121  31819.6621     10.1207      0.7588     15.4794      0.7210
  1754.2764     56.9763    339.8291      8.7309  31890.8691   1729.4828     78.5737      0.3116  31823.7305     10.1014      0.7799     15.4991      0.7169
  1754.4288     56.9763    340.8141      7.5764  31723.0234   1729.6554     78.5296      0.3127  31814.5742     10.0487      0.7428     15.4855      0.7173
  1754.5812     56.9763    340.8141      6.7561  31646.7285   1729.8479     78.5737      0.3116  31823.7305     10.1057      0.7786     15.5127      0.7211
  1754.7336     56.9763    340.8141      6.5503  31921.3867   1729.9969     78.5572      0.3116  31823.7305     10.0508      0.7762     15.4775      0.7268
  1754.8860     56.9763    340.8141      7.3960  32023.1113   1730.1578     78.5848      0.3127  31814.5742     10.1027      0.7980     15.4269      0.7192
