~Version Information
VERS.                            2.0: CWLS Log ASCII STANDARD - VERSION 2.0
WRAP.                             NO: One line per depth step
~Well Information
STRT.M                     2229.9168: START DEPTH
STOP.M                     2385.0600: STOP DEPTH
STEP.M                        0.1524: STEP
NULL.                      -999.2500: NULL VALUE
COMP.                               : COMPANY
WELL.                               : WELL
FLD.                                : FIELD
LOC.                                : LOCATION
DATE.                Wed Sep 11 12-22-31 2024: LOG DATE
SECT.                               : SECTION
TOWN.                               : TOWNSHIP
RANG.                               : RANGE
OS.                                 : OTHER SERVICES
PDAT.FT                             : PERMANENT DATUM
EEL.FT                              : ELEVATION
LMF.FT                              : LOG MEASURED FROM
DMF.FT                              : DRILLING MEASURED FROM
EKB.FT                              : KB
EDF.FT                              : DF
EGL.FT                              : GL
DATE1.                              : DATE1
RUN1.                               : RUN NUMBER
TDD1.FT                             : DEPTH DRILLER
TDL1.FT                             : DEPTH LOGGER
BLI1.FT                             : BOTTOM LOGGED INTERVAL
TLI1.FT                             : TOP LOG INTERVAL
CDD1.IN_FT                          : CASING DRILLER
CDL1.FT                             : CASING LOGGER
BS1.IN                              : BIT SIZE
DFT1.                               : TYPE FLUID IN HOLE
DFDV1.GM/C3_CP                      : DENSITY/VISCOSITY
DFPL1.C3                            : PH/FLUID LOSS
MSS1.                               : SOURCE OF SAMPLE
RMT1.OHHM_DEGF                      : RM@MEASURED TEMP
RMFT1.OHMM_DEGF                     : RMF@MEASURED TEMP
RMCT1.OHMM_DEGF                     : RMC@MEASURED TEMP
RMFS1.                              : SOURCE OF RMF/RMC
RMBT1.OHMM_DEGF                     : RM@BHT
TCS1.                               : TIME CIRCULATION STOPPED
TLOB1.                              : TIME LOGGER ON BOTTOM
BHT1.DEGF                           : MAXIMUM RECORDED TEMPERATURE
LUN1.                               : EQUIPMENT NUMBER
LUL1.                               : LOCATION
ENGI1.                              : RECORDED BY
WITN1.                              : WITNESSED BY
COMW.                               : Common Well Name
~Curve Information
DEPT.M                   0 000 00 00: Depth
LSPD.M/MIN                         0: Line Speed
LTEN.LB                            0: Surface Line Tension
GR.GAPI                            0: Gamma Ray
CCL.                               0: Casing Collar Locator
QP.PSI                             0: Quartz Pressure
TEMP.DEGC                          0: Downhole Temperature
CWH.                               0: Capacitance Water Holdup
CWHC.CPS                           0: CWH Counts
ILS.RPS                            0: Flowmeter
QPSG.                              0: Specific Gravity from QP
CFS.RPS                            0: Flowmeter
FDIDEN.G/CC                        0: FDI Fluid Density
~Parameter Information
~A  Depth       LSPD        LTEN         GR         CCL          QP         TEMP        CWH         CWHC        ILS         QPSG        CFS        FDIDEN   
# ...
  2309.1648     10.0310    591.9908     14.8558  31829.8340   2465.9897     80.8826      0.3064  31864.3535      0.9560      0.8253      1.4568      0.8453
  2309.3172      9.9395    600.8559     16.0415  31829.8340   2466.1511     80.8847      0.3063  31864.9570      0.9535      0.7927      1.4446      0.8447
  2309.4696      9.8633    594.9459     16.7069  31819.6621   2466.3184     80.8897      0.3066  31862.4199      0.9561      0.8082      1.4329      0.8441
  2309.6220     10.0096    597.9009     17.1918  31887.4785   2466.4985     80.8877      0.3064  31864.6348      0.9442      0.8099      1.4229      0.8441
  2309.7744     10.0096    595.9308     17.9695  31804.4023   2466.6904     80.8847      0.3064  31864.6348      0.9494      0.8135      1.4284      0.8441
  2309.9268      9.8877    593.9609     19.0200  31824.4492   2466.8533     80.8911      0.3059  31868.3555      0.9502      0.8138      1.4429      0.8445
  2310.0792      9.8938    606.7659     19.7426  31854.2480   2467.0237     80.8897      0.3055  31871.0586      0.9436      0.7921      1.4417      0.8448
  2310.2316      9.8572    595.9308     19.6250  31838.8105   2467.2041     80.8855      0.3056  31870.3574      0.9378      0.8149      1.4367      0.8449
  2310.3840      9.9792    592.9758     18.8696  31791.6875   2467.3772     80.8897      0.3055  31871.0586      0.9321      0.8138      1.4400      0.8446
  2310.5364      9.9030    598.8859     18.3153  31848.1445   2467.5598     80.8867      0.3056  31870.6973      0.9285      0.8124      1.4568      0.8444
  2310.6888      9.8420    597.9009     18.5466  31833.2246   2467.7292     80.8847      0.3057  31869.9258      0.9243      0.7727      1.4551      0.8448
  2310.8412     10.0462    596.9159     19.2412  31845.0938   2467.9084     80.8867      0.3053  31873.2012      0.9195      0.7251      1.4611      0.8450
  2310.9936      9.9395    600.8559     19.6739  31846.7891   2468.0471     80.8897      0.3049  31875.8887      0.9155      0.7614      1.4782      0.8446
  2311.1460      9.9792    595.9308     19.6356  31777.1211   2468.1885     80.8867      0.3049  31875.8887      0.9106      0.7825      1.4897      0.8441
  2311.2984      9.9792    605.7809     19.6695  31793.2129   2468.3894     80.8931      0.3046  31878.3613      0.9053      0.8498      1.5002      0.8436
  2311.4508      9.9334    595.9308     20.5468  31784.0586   2468.5869     80.8897      0.3044  31880.3262      0.9000      0.8786      1.5070      0.8437
  2311.6032      9.9334    594.9459     22.3818  31799.3164   2468.7839     80.8915      0.3045  31878.9727      0.9125      0.8493      1.5021      0.8440
  2311.7556      9.8725    595.9308     24.0673  31761.1699   2468.9502     80.8897      0.3046  31878.7773      0.9103      0.8175      1.4958      0.8436
  2311.9080      9.8115    596.9159     24.1286  31771.5723   2469.1257     80.8915      0.3045  31878.9727      0.9047      0.8034      1.4957      0.8446
  2312.0604     10.0005    595.9308     22.7295  31806.0977   2469.2957     80.8855      0.3045  31878.9727      0.9089      0.8118      1.4873      0.8448
  2312.2128      9.9243    598.8859     22.0133  31816.7559   2469.4805     80.8915      0.3047  31877.4844      0.9121      0.8006      1.5031      0.8441
  2312.3652      9.8877    591.9908     23.5751  31799.3164   2469.6541     80.8931      0.3037  31885.1797      0.9250      0.8149      1.5225      0.8441
  2312.5176     10.0005    603.8109     26.4647  31776.4277   2469.8198     80.8915      0.3036  31886.0508      0.9305      0.8042      1.5644      0.8429
  2312.6700      9.9182    594.9459     28.4180  31765.4082   2470.0022     80.8931      0.3043  31881.0410      0.9327      0.8073      1.5801      0.8428
  2312.8224      9.8633    594.9459     28.1587  31738.2813   2470.1777     80.8968      0.3043  31881.0410      0.9396      0.8163      1.5756      0.8431
  2312.9748      9.9243    593.9609     26.2365  31799.3164   2470.3540     80.8933      0.3040  31883.1113      0.9455      0.8141      1.5774      0.8427
  2313.1272      9.9548    596.9159     24.4373  31756.5918   2470.5276     80.8915      0.3038  31884.2871      0.9629      0.8189      1.5945      0.8423
  2313.2796      9.9090    604.7959     24.3697  31883.2402   2470.7080     80.8984      0.3044  31879.6250      0.9788      0.8186      1.5940      0.8428
  2313.4320      9.9639    596.9159     26.2373  31819.6621   2470.8877     80.8991      0.3041  31882.3633      0.9914      0.8335      1.5607      0.8432
  2313.5844      9.9639    591.0059     28.9491  31834.1934   2471.0637     80.8915      0.3047  31877.4844      1.0008      0.8099      1.5426      0.8429
  2313.7368      9.9852    595.9308     31.1267  31829.8340   2471.2502     80.8897      0.3035  31887.2480      1.0036      0.8096      1.5487      0.8429
  2313.8892      9.8938    600.8559     31.9896  31826.4434   2471.4102     80.8984      0.3031  31890.2930      1.0060      0.8090      1.5969      0.8435
  2314.0416      9.8481    593.9609     31.8497  31829.8340   2471.5896     80.8999      0.3023  31896.7578      1.0158      0.7972      1.5789      0.8442
  2314.1940      9.9639    596.9159     31.8314  31772.1895   2471.7651     80.8931      0.3021  31897.5938      1.0267      0.8113      1.6071      0.8449
  2314.3464      9.9792    597.9009     32.6981  31806.9453   2471.9414     80.8984      0.3023  31896.7578      1.0227      0.7975      1.6264      0.8446
  2314.4988      9.8725    595.9308     34.1505  31842.0410   2472.1135     80.8931      0.3031  31890.3691      1.0319      0.8025      1.6024      0.8441
  2314.6512      9.8633    593.9609     35.5459  31799.3164   2472.2810     80.8915      0.3036  31886.0508      1.0308      0.8011      1.5901      0.8440
  2314.8036      9.9030    595.9308     36.7216  31812.8789   2472.4609     80.8968      0.3043  31881.0410      1.0303      0.8130      1.5529      0.8439
  2314.9560      9.8328    599.8709     37.7835  31785.7539   2472.6360     80.8950      0.3042  31881.7676      1.0267      0.8146      1.5419      0.8446
  2315.1084      9.8268    599.8709     38.5470  31817.6270   2472.8184     80.8974      0.3045  31878.9727      1.0222      0.8132      1.4739      0.8450
  2315.2608      9.9639    594.9459     38.6550  31811.5234   2472.9873     80.9039      0.3043  31880.6973      1.0161      0.8048      1.4479      0.8443
  2315.4132      9.8420    596.9159     37.9550  31819.6621   2473.1660     80.8999      0.3044  31879.9707      1.0089      0.8017      1.3577      0.8435
  2315.5656      9.8420    595.9308     36.3835  31774.9023   2473.3337     80.9024      0.3044  31879.6250      1.0044      0.8115      1.3195      0.8434
  2315.7180      9.7719    595.9308     34.2277  31822.2051   2473.5134     80.8999      0.3038  31884.7656      0.9978      0.7944      1.3479      0.8428
  2315.8704      9.9944    600.8559     32.8731  31812.8789   2473.6909     80.8999      0.3042  31881.7676      1.0006      0.8172      1.3945      0.8435
  2316.0228      9.8938    595.9308     33.7467  31845.0938   2473.8547     80.8984      0.3045  31879.5000      0.9898      0.8017      1.4074      0.8446
  2316.1752      9.8481    602.8259     36.0521  31810.4141   2474.0422     80.8949      0.3044  31879.9707      0.9881      0.8059      1.4851      0.8447
  2316.3276      9.9852    600.8559     37.3576  31845.0938   2474.2085     80.8984      0.3043  31881.0801      0.9865      0.8082      1.5604      0.8440
  2316.4800      9.9182    595.9308     36.4545  31791.3555   2474.3896     80.8999      0.3035  31886.9844      0.9786      0.7941      1.5610      0.8430
  2316.6324      9.9182    598.8859     34.2019  31846.7891   2474.5554     80.8995      0.3037  31885.6074      0.9741      0.8096      1.3767      0.8431
  2316.7848      9.8633    595.9308     32.3265  31819.6621   2474.7307     80.8984      0.3036  31886.5098      0.9711      0.7944      1.1916      0.8437
  2316.9372      9.8877    597.9009     32.1237  31831.6289   2474.9104     80.9013      0.3032  31889.3184      0.9831      0.7989      1.1258      0.8435
