~Version Information
VERS.                            2.0: CWLS Log ASCII STANDARD - VERSION 2.0
WRAP.                             NO: One line per depth step
~Well Information
STRT.M                     2229.9168: START DEPTH
STOP.M                     2385.0600: STOP DEPTH
STEP.M                        0.1524: STEP
NULL.                      -999.2500: NULL VALUE
COMP.                               : COMPANY
WELL.                               : WELL
FLD.                                : FIELD
LOC.                                : LOCATION
DATE.                Wed Sep 11 12-22-31 2024: LOG DATE
SECT.                               : SECTION
TOWN.                               : TOWNSHIP
RANG.                               : RANGE
OS.                                 : OTHER SERVICES
PDAT.FT                             : PERMANENT DATUM
EEL.FT                              : ELEVATION
LMF.FT                              : LOG MEASURED FROM
DMF.FT                              : DRILLING MEASURED FROM
EKB.FT                              : KB
EDF.FT                              : DF
EGL.FT                              : GL
DATE1.                              : DATE1
RUN1.                               : RUN NUMBER
TDD1.FT                             : DEPTH DRILLER
TDL1.FT                             : DEPTH LOGGER
BLI1.FT                             : BOTTOM LOGGED INTERVAL
TLI1.FT                             : TOP LOG INTERVAL
CDD1.IN_FT                          : CASING DRILLER
CDL1.FT                             : CASING LOGGER
BS1.IN                              : BIT SIZE
DFT1.                               : TYPE FLUID IN HOLE
DFDV1.GM/C3_CP                      : DENSITY/VISCOSITY
DFPL1.C3                            : PH/FLUID LOSS
MSS1.                               : SOURCE OF SAMPLE
RMT1.OHHM_DEGF                      : RM@MEASURED TEMP
RMFT1.OHMM_DEGF                     : RMF@MEASURED TEMP
RMCT1.OHMM_DEGF                     : RMC@MEASURED TEMP
RMFS1.                              : SOURCE OF RMF/RMC
RMBT1.OHMM_DEGF                     : RM@BHT
TCS1.                               : TIME CIRCULATION STOPPED
TLOB1.                              : TIME LOGGER ON BOTTOM
BHT1.DEGF                           : MAXIMUM RECORDED TEMPERATURE
LUN1.                               : EQUIPMENT NUMBER
LUL1.                               : LOCATION
ENGI1.                              : RECORDED BY
WITN1.                              : WITNESSED BY
COMW.                               : Common Well Name
~Curve Information
DEPT.M                   0 000 00 00: Depth
LSPD.M/MIN                         0: Line Speed
LTEN.LB                            0: Surface Line Tension
GR.GAPI                            0: Gamma Ray
CCL.                               0: Casing Collar Locator
QP.PSI                             0: Quartz Pressure
TEMP.DEGC                          0: Downhole Temperature
CWH.                               0: Capacitance Water Holdup
CWHC.CPS                           0: CWH Counts
ILS.RPS                            0: Flowmeter
QPSG.                              0: Specific Gravity from QP
CFS.RPS                            0: Flowmeter
FDIDEN.G/CC                        0: FDI Fluid Density
~Parameter Information
~A  Depth       LSPD        LTEN         GR         CCL          QP         TEMP        CWH         CWHC        ILS         QPSG        CFS        FDIDEN   
# ...
  2269.5408      9.9487    580.1708      8.8709  31846.7891   2420.1724     80.4302      0.3267  31704.9902      1.7502      0.8138      2.3869      0.8374
  2269.6932     10.0005    580.1708      8.3421  31812.5840   2420.3513     80.4302      0.3278  31696.9023      1.7640      0.8172      2.3650      0.8382
  2269.8456      9.8786    576.2307      7.5062  31812.8789   2420.5269     80.4284      0.3307  31673.6563      1.7677      0.8155      2.4010      0.8391
  2269.9980      9.7566    579.1857      6.7209  31829.8340   2420.7065     80.4278      0.3296  31682.4180      1.7713      0.8085      2.4005      0.8394
  2270.1504      9.7810    581.1558      6.1115  31817.6270   2420.8794     80.4259      0.3268  31704.7715      1.7769      0.8200      2.4314      0.8394
  2270.3028      9.8481    579.1857      5.6545  31829.8340   2421.0522     80.4302      0.3288  31689.0254      1.7777      0.8082      2.4013      0.8389
  2270.4552      9.8328    580.1708      5.4632  31841.5723   2421.2378     80.4271      0.3288  31688.6250      1.7766      0.8138      2.4226      0.8394
  2270.6076      9.8938    580.1708      5.6345  31829.8340   2421.4072     80.4327      0.3285  31691.3320      1.7717      0.8093      2.4148      0.8389
  2270.7600      9.9639    579.1857      6.0612  31810.4141   2421.5850     80.4327      0.3257  31713.0254      1.7754      0.8099      2.3863      0.8386
  2270.9124      9.8572    581.1558      6.5876  31833.2246   2421.7539     80.4284      0.3282  31693.8926      1.7721      0.8180      2.3675      0.8401
  2271.0648      9.8024    579.1857      7.2187  31835.9375   2421.9399     80.4355      0.3277  31697.5918      1.7733      0.8096      2.4003      0.8395
  2271.2172      9.8328    580.1708      8.1857  31821.8027   2422.1165     80.4339      0.3262  31709.3145      1.7724      0.8155      2.4586      0.8391
  2271.3696      9.8633    583.1258      9.6549  31835.9375   2422.2869     80.4259      0.3271  31701.8750      1.7770      0.8020      2.4265      0.8399
  2271.5220      9.8633    580.1708     11.1908  31838.8105   2422.4609     80.4339      0.3257  31713.4531      1.7815      0.8017      2.4174      0.8399
  2271.6744      9.8420    579.1857     11.9335  31810.0879   2422.6353     80.4327      0.3267  31705.1777      1.7709      0.8113      2.4544      0.8392
  2271.8268      9.9395    579.1857     11.5070  31796.1035   2422.8115     80.4368      0.3244  31723.5488      1.7689      0.8138      2.4776      0.8393
  2271.9792      9.9395    577.2158     10.3611  31831.6289   2422.9902     80.4341      0.3249  31719.5020      1.7678      0.8172      2.4946      0.8389
  2272.1316      9.8115    583.1258      9.2948  31822.2051   2423.1665     80.4368      0.3239  31727.5742      1.7583      0.8073      2.5150      0.8382
  2272.2840      9.8481    576.2307      8.9604  31817.2676   2423.3438     80.4291      0.3266  31706.2637      1.7610      0.8104      2.5431      0.8369
  2272.4364      9.8633    582.1407      9.4920  31835.9375   2423.5115     80.4396      0.3291  31686.8828      1.7677      0.8003      2.5538      0.8379
  2272.5888      9.8328    580.1708     10.4355  31825.4746   2423.6929     80.4311      0.3256  31714.2676      1.7642      0.8008      2.5588      0.8396
  2272.7412      9.7658    578.2007     11.2641  31819.6621   2423.8604     80.4355      0.3259  31711.6484      1.7617      0.8006      2.5357      0.8397
  2272.8936      9.9182    584.1108     11.7749  31833.8145   2424.0381     80.4327      0.3279  31696.2578      1.7655      0.8003      2.4919      0.8392
  2273.0460      9.9030    580.1708     11.9017  31828.2285   2424.2056     80.4284      0.3254  31715.2500      1.7686      0.8138      2.5161      0.8392
  2273.1984      9.8725    581.1558     11.5213  31811.5234   2424.3867     80.4396      0.3262  31709.3145      1.7687      0.8073      2.5463      0.8384
  2273.3508     10.0096    585.0958     10.6454  31824.4492   2424.5659     80.4384      0.3254  31715.5215      1.7535      0.8189      2.5129      0.8387
  2273.5032      9.8877    579.1857      9.6179  31826.4434   2424.7380     80.4368      0.3259  31711.6484      1.7532      0.8130      2.5033      0.8396
  2273.6556      9.8877    584.1108      8.9187  31819.6621   2424.9155     80.4355      0.3257  31713.4531      1.7491      0.8146      2.4564      0.8390
  2273.8080      9.8328    584.1108      8.7916  31812.8789   2425.0916     80.4327      0.3266  31706.0371      1.7525      0.8034      2.4283      0.8374
  2273.9604      9.8268    580.1708      9.0979  31829.8340   2425.2722     80.4368      0.3249  31719.6602      1.7577      0.8099      2.3757      0.8375
  2274.1128      9.8725    588.0508      9.5035  31811.5234   2425.4346     80.4355      0.3281  31694.5195      1.7674      0.8161      2.3776      0.8384
  2274.2652      9.8268    583.1258      9.7888  31822.2051   2425.6177     80.4368      0.3263  31708.2988      1.7615      0.8034      2.3217      0.8393
  2274.4176      9.8024    586.0808     10.0528  31819.6621   2425.7991     80.4384      0.3267  31705.1777      1.7571      0.8293      2.2867      0.8388
  2274.5700      9.9639    586.0808     10.6062  31814.5742   2425.9688     80.4368      0.3243  31724.4629      1.7633      0.8175      2.2638      0.8391
  2274.7224      9.8938    582.1407     11.4942  31814.5742   2426.1536     80.4368      0.3278  31696.9023      1.7712      0.8144      2.3030      0.8392
  2274.8748      9.8786    585.0958     12.2589  31840.0059   2426.3264     80.4396      0.3252  31716.7402      1.7687      0.8197      2.3569      0.8386
  2275.0272      9.9243    586.0808     12.3355  31817.6270   2426.5051     80.4396      0.3257  31713.4531      1.7724      0.8054      2.3594      0.8380
  2275.1796      9.8938    579.1857     11.6140  31806.0977   2426.6794     80.4396      0.3257  31712.9453      1.7709      0.8206      2.4521      0.8387
  2275.3320      9.8268    588.0508     10.7067  31829.8340   2426.8518     80.4396      0.3269  31704.0156      1.7763      0.8121      2.5311      0.8392
  2275.4844      9.8176    584.1108     10.5352  31835.9375   2427.0378     80.4426      0.3269  31704.0156      1.7705      0.8194      2.5544      0.8384
  2275.6368      9.8176    587.0658     11.4889  31799.3164   2427.2092     80.4396      0.3260  31710.4414      1.7803      0.8211      2.5203      0.8388
  2275.7892      9.9090    588.0508     13.1618  31824.7480   2427.3899     80.4441      0.3271  31701.8750      1.7819      0.8146      2.5381      0.8402
  2275.9416      9.8725    584.1108     14.7204  31826.4434   2427.5637     80.4384      0.3240  31726.7656      1.7766      0.8132      2.5407      0.8392
  2276.0940      9.8877    589.0358     15.3962  31809.4883   2427.7441     80.4406      0.3250  31718.3066      1.7753      0.8110      2.5094      0.8378
  2276.2464      9.9792    585.0958     15.0693  31823.7305   2427.9143     80.4416      0.3272  31701.0391      1.7742      0.8132      2.5243      0.8384
  2276.3988      9.8572    585.0958     14.3412  31842.9121   2428.0930     80.4434      0.3233  31731.6230      1.7720      0.8096      2.5002      0.8394
  2276.5512      9.7871    588.0508     13.7473  31819.6621   2428.2688     80.4416      0.3241  31725.8672      1.7654      0.8259      2.4942      0.8392
  2276.7036      9.8420    586.0808     13.2570  31822.2051   2428.4460     80.4434      0.3248  31720.5254      1.7597      0.8124      2.4518      0.8395
  2276.8560      9.8786    595.9308     12.7362  31834.9199   2428.6304     80.4406      0.3244  31723.2910      1.7692      0.8203      2.4545      0.8399
  2277.0084      9.9090    591.0059     12.3620  31833.2246   2428.7974     80.4396      0.3237  31729.0684      1.7610      0.8192      2.3842      0.8385
  2277.1608      9.9487    582.1407     12.3628  31833.2246   2428.9800     80.4434      0.3255  31714.7246      1.7614      0.8107      2.3943      0.8377
  2277.3132      9.9395    588.0508     12.6440  31791.6875   2429.1563     80.4492      0.3238  31728.2754      1.7715      0.8203      2.4150      0.8377
