~Version Information
VERS.                            2.0: CWLS Log ASCII STANDARD - VERSION 2.0
WRAP.                             NO: One line per depth step
~Well Information
STRT.M                        3.6576: START DEPTH
STOP.M                     2390.0892: STOP DEPTH
STEP.M                        0.1524: STEP
NULL.                      -999.2500: NULL VALUE
COMP.                               : COMPANY
WELL.                               : WELL
FLD.                                : FIELD
LOC.                                : LOCATION
DATE.                Wed Sep 11 08-05-24 2024: LOG DATE
SECT.                               : SECTION
TOWN.                               : TOWNSHIP
RANG.                               : RANGE
OS.                                 : OTHER SERVICES
PDAT.FT                             : PERMANENT DATUM
EEL.FT                              : ELEVATION
LMF.FT                              : LOG MEASURED FROM
DMF.FT                              : DRILLING MEASURED FROM
EKB.FT                              : KB
EDF.FT                              : DF
EGL.FT                              : GL
DATE1.                              : DATE1
RUN1.                               : RUN NUMBER
TDD1.FT                             : DEPTH DRILLER
TDL1.FT                             : DEPTH LOGGER
BLI1.FT                             : BOTTOM LOGGED INTERVAL
TLI1.FT                             : TOP LOG INTERVAL
CDD1.IN_FT                          : CASING DRILLER
CDL1.FT                             : CASING LOGGER
BS1.IN                              : BIT SIZE
DFT1.                               : TYPE FLUID IN HOLE
DFDV1.GM/C3_CP                      : DENSITY/VISCOSITY
DFPL1.C3                            : PH/FLUID LOSS
MSS1.                               : SOURCE OF SAMPLE
RMT1.OHHM_DEGF                      : RM@MEASURED TEMP
RMFT1.OHMM_DEGF                     : RMF@MEASURED TEMP
RMCT1.OHMM_DEGF                     : RMC@MEASURED TEMP
RMFS1.                              : SOURCE OF RMF/RMC
RMBT1.OHMM_DEGF                     : RM@BHT
TCS1.                               : TIME CIRCULATION STOPPED
TLOB1.                              : TIME LOGGER ON BOTTOM
BHT1.DEGF                           : MAXIMUM RECORDED TEMPERATURE
LUN1.                               : EQUIPMENT NUMBER
LUL1.                               : LOCATION
ENGI1.                              : RECORDED BY
WITN1.                              : WITNESSED BY
COMW.                               : Common Well Name
~Curve Information
DEPT.M                   0 000 00 00: Depth
LSPD.M/MIN                         0: Line Speed
LTEN.LB                            0: Surface Line Tension
GR.GAPI                            0: Gamma Ray
CCL.                               0: Casing Collar Locator
QP.PSI                             0: Quartz Pressure
TEMP.DEGC                          0: Downhole Temperature
CWH.                               0: Capacitance Water Holdup
CWHC.CPS                           0: CWH Counts
ILS.RPS                            0: Flowmeter
QPSG.                              0: Specific Gravity from QP
CFS.RPS                            0: Flowmeter
FDIDEN.G/CC                        0: FDI Fluid Density
~Parameter Information
~A  Depth       LSPD        LTEN         GR         CCL          QP         TEMP        CWH         CWHC        ILS         QPSG        CFS        FDIDEN   
# ...
   320.6496     47.8871    107.3675     13.6381  31799.3164    455.7133     68.2881      0.1420  33152.2617     16.7537      0.4327     29.0033      0.2079
   320.8020     47.8871    106.3825     12.6092  31677.2461    455.7758     68.2967      0.1433  33142.0898     16.7420      0.3128     28.9987      0.2108
   320.9544     47.8871    106.3825     10.2611  31799.3164    455.8317     68.2967      0.1433  33142.0898     16.8334      0.3097     28.9958      0.2155
   321.1068     48.2072    105.3975      7.5524  31494.1406    455.9006     68.3037      0.1433  33142.0898     16.8906      0.3224     28.8316      0.2146
   321.2592     48.2072    105.3975      5.2068  31799.3164    455.9818     68.3256      0.1433  33142.0898     17.0111      0.4084     28.8112      0.2103
   321.4116     48.2072    107.3675      3.6936  31707.7637    456.0553     68.3353      0.1433  33142.0898     16.7952      0.5121     28.7364      0.2115
   321.5640     48.2072    107.3675      3.1636  31677.2461    456.1859     68.3187      0.1433  33142.0898     16.7366      0.5618     28.8131      0.2127
   321.7164     48.2072    110.3226      3.4912  32226.5625    456.3446     68.3095      0.1433  33142.0898     16.6984      0.5597     28.8103      0.2137
   321.8688     48.2072    107.3675      4.3493  31829.8340    456.4689     68.3256      0.1448  33129.8828     16.6537      0.5309     28.8326      0.2143
   322.0212     51.2978    107.3675      5.2779  31616.2109    456.5406     68.3310      0.1433  33142.0898     16.4824      0.4583     28.9061      0.2180
   322.1736     51.2978    105.3975      6.1613  31799.3164    456.6462     68.3256      0.1417  33154.2969     16.4965      0.4247     29.0314      0.2205
   322.3260     51.2978    105.3975      7.4351  32226.5625    456.7420     68.3256      0.1422  33150.8086     16.4032      0.4075     29.1293      0.2204
   322.4784     51.2978    105.3975      9.3927  31585.6934    456.8372     68.3095      0.1424  33148.8711     16.4107      0.3598     29.2360      0.2206
   322.6308     51.2978    104.4125     11.6040  31524.6582    456.8938     68.3353      0.1433  33142.0898     16.2736      0.3127     29.3919      0.2162
   322.7832     51.2978    104.4125     13.2278  32012.9395    456.9582     68.3353      0.1433  33142.0898     16.4475      0.2685     29.4966      0.2086
   322.9356     51.2978    102.4425     13.5117  31982.4219    457.0131     68.3388      0.1433  33142.0898     16.4050      0.4017     29.6324      0.2123
   323.0880     53.6113    103.4275     12.2151  31555.1758    457.0700     68.3353      0.1433  33142.0898     16.3086      0.4535     29.5907      0.2237
   323.2404     53.6113    103.4275     10.1894  31494.1406    457.2421     68.3739      0.1448  33129.8828     16.2728      0.4909     29.6113      0.2215
   323.3928     53.6113    105.3975      9.1183  31921.3867    457.3513     68.3388      0.1417  33154.2969     16.3481      0.4814     29.5406      0.2111
   323.5452     53.6113    105.3975     10.0291  31768.7988    457.4388     68.3256      0.1433  33142.0898     16.3897      0.4031     29.3724      0.2132
   323.6976     53.6113    106.3825     12.4644  31921.3867    457.4873     68.3739      0.1459  33121.7461     16.4825      0.4592     29.2270      0.2181
   323.8500     53.6113    107.3675     15.1431  32226.5625    457.5916     68.3256      0.1424  33148.8711     16.4961      0.4768     28.9491      0.2154
   324.0024     56.2234    107.3675     16.6933  32165.5273    457.7495     68.3417      0.1433  33142.0898     16.4265      0.4860     28.8597      0.2181
   324.1548     56.2234    110.3226     16.3013  31860.3516    457.8522     68.3256      0.1433  33142.0898     16.4389      0.4493     28.7292      0.2140
   324.3072     56.2234    110.3226     14.7891  31860.3516    457.9087     68.3256      0.1444  33133.3711     16.4300      0.3384     28.7963      0.2098
   324.4596     56.2234    112.2926     14.2132  31860.3516    457.9811     68.3353      0.1394  33172.6094     16.3573      0.3794     28.8330      0.2140
   324.6120     56.2234    109.3376     15.4460  31677.2461    458.0429     68.3739      0.1433  33142.0898     16.4813      0.4522     28.8948      0.2180
   324.7644     56.2234    109.3376     17.0461  31951.9043    458.1811     68.3739      0.1440  33136.5430     16.3624      0.4922     28.9419      0.2162
   324.9168     56.2234    109.3376     17.1738  31875.6094    458.3008     68.3739      0.1433  33142.0898     16.3184      0.4914     29.1767      0.2117
   325.0692     59.7560    109.3376     15.6898  31616.2109    458.4078     68.3463      0.1433  33142.0898     16.3381      0.3800     29.2605      0.2202
   325.2216     59.7560    107.3675     13.6722  31738.2813    458.4690     68.3256      0.1424  33148.8711     16.4392      0.3294     29.3450      0.2228
   325.3740     59.7560    106.3825     11.8398  31829.8340    458.5105     68.3739      0.1433  33142.0898     16.4909      0.2353     29.3938      0.2190
   325.5264     59.7560    106.3825     10.5312  31707.7637    458.5864     68.3739      0.1433  33142.0898     16.3605      0.3881     29.4238      0.2157
   325.6788     59.7560    106.3825     10.3470  29998.7793    458.6118     68.3353      0.1441  33135.3086     16.1860      0.4834     29.3920      0.2154
   325.8312     59.7560    106.3825     11.3463  31890.8691    458.8055     68.3739      0.1399  33168.2461     16.0786      0.4999     29.2437      0.2125
   325.9836     59.8536    106.3825     12.3642  31860.3516    458.9297     68.3739      0.1413  33157.3477     16.2515      0.5899     29.1402      0.2150
   326.1360     59.8536    106.3825     12.3580  31941.7324    459.0198     68.3739      0.1422  33150.8086     16.2509      0.5426     29.1091      0.2202
   326.2884     59.8536    106.3825     11.5781  31921.3867    459.1233     68.3739      0.1433  33142.0898     16.3092      0.5203     29.1772      0.2201
   326.4408     59.8536    109.3376     10.9436  31921.3867    459.2759     68.3739      0.1433  33142.0898     16.3999      0.4723     29.2131      0.2192
   326.5932     59.8536    109.3376     11.2330  31951.9043    459.3808     68.3739      0.1444  33133.3711     16.3418      0.3906     29.2695      0.2113
   326.7456     59.8536    109.3376     13.0641  31860.3516    459.4293     68.3739      0.1433  33142.0898     16.2711      0.2513     29.3078      0.2100
   326.8980     59.8536    109.3376     16.3253  31677.2461    459.4619     68.3739      0.1413  33157.3477     16.2727      0.2568     29.3796      0.2182
   327.0504     59.4421    109.3376     19.2476  31707.7637    459.4937     68.3739      0.1417  33154.2969     16.3262      0.3403     29.4745      0.2147
   327.2028     59.4421    110.3226     20.1983  31768.7988    459.6035     68.3739      0.1433  33142.0898     16.2285      0.4026     29.4662      0.2081
   327.3552     59.4421    111.3076     20.3337  31799.3164    459.7244     68.3739      0.1433  33142.0898     16.2391      0.5000     29.3722      0.2128
   327.5076     59.4421    111.3076     21.4745  31768.7988    459.8110     68.3981      0.1444  33133.3711     16.3845      0.5173     29.3912      0.2157
   327.6600     59.4421    109.3376     22.7848  31738.2813    459.9272     68.3739      0.1413  33157.3477     16.3658      0.5329     29.3136      0.2131
   327.8124     59.4421    109.3376     22.5105  31799.3164    460.0519     68.3739      0.1433  33142.0898     16.4179      0.4965     29.1649      0.2161
   327.9648     60.2193    108.3525     20.6094  31778.9707    460.1864     68.3739      0.1441  33135.3086     16.4395      0.4834     28.9955      0.2185
   328.1172     60.2193    108.3525     18.0469  31799.3164    460.2415     68.4015      0.1433  33142.0898     16.3973      0.4188     28.9974      0.2125
   328.2696     60.2193    108.3525     15.5864  31829.8340    460.3464     68.3739      0.1433  33142.0898     16.4043      0.3966     29.0064      0.2100
   328.4220     60.2193    108.3525     13.6404  31982.4219    460.4150     68.3739      0.1448  33129.8828     16.4844      0.4286     29.0080      0.2208
