~Version Information
VERS.                            2.0: CWLS Log ASCII STANDARD - VERSION 2.0
WRAP.                             NO: One line per depth step
~Well Information
STRT.M                     2229.9168: START DEPTH
STOP.M                     2385.0600: STOP DEPTH
STEP.M                        0.1524: STEP
NULL.                      -999.2500: NULL VALUE
COMP.                               : COMPANY
WELL.                               : WELL
FLD.                                : FIELD
LOC.                                : LOCATION
DATE.                Wed Sep 11 12-22-31 2024: LOG DATE
SECT.                               : SECTION
TOWN.                               : TOWNSHIP
RANG.                               : RANGE
OS.                                 : OTHER SERVICES
PDAT.FT                             : PERMANENT DATUM
EEL.FT                              : ELEVATION
LMF.FT                              : LOG MEASURED FROM
DMF.FT                              : DRILLING MEASURED FROM
EKB.FT                              : KB
EDF.FT                              : DF
EGL.FT                              : GL
DATE1.                              : DATE1
RUN1.                               : RUN NUMBER
TDD1.FT                             : DEPTH DRILLER
TDL1.FT                             : DEPTH LOGGER
BLI1.FT                             : BOTTOM LOGGED INTERVAL
TLI1.FT                             : TOP LOG INTERVAL
CDD1.IN_FT                          : CASING DRILLER
CDL1.FT                             : CASING LOGGER
BS1.IN                              : BIT SIZE
DFT1.                               : TYPE FLUID IN HOLE
DFDV1.GM/C3_CP                      : DENSITY/VISCOSITY
DFPL1.C3                            : PH/FLUID LOSS
MSS1.                               : SOURCE OF SAMPLE
RMT1.OHHM_DEGF                      : RM@MEASURED TEMP
RMFT1.OHMM_DEGF                     : RMF@MEASURED TEMP
RMCT1.OHMM_DEGF                     : RMC@MEASURED TEMP
RMFS1.                              : SOURCE OF RMF/RMC
RMBT1.OHMM_DEGF                     : RM@BHT
TCS1.                               : TIME CIRCULATION STOPPED
TLOB1.                              : TIME LOGGER ON BOTTOM
BHT1.DEGF                           : MAXIMUM RECORDED TEMPERATURE
LUN1.                               : EQUIPMENT NUMBER
LUL1.                               : LOCATION
ENGI1.                              : RECORDED BY
WITN1.                              : WITNESSED BY
COMW.                               : Common Well Name
~Curve Information
DEPT.M                   0 000 00 00: Depth
LSPD.M/MIN                         0: Line Speed
LTEN.LB                            0: Surface Line Tension
GR.GAPI                            0: Gamma Ray
CCL.                               0: Casing Collar Locator
QP.PSI                             0: Quartz Pressure
TEMP.DEGC                          0: Downhole Temperature
CWH.                               0: Capacitance Water Holdup
CWHC.CPS                           0: CWH Counts
ILS.RPS                            0: Flowmeter
QPSG.                              0: Specific Gravity from QP
CFS.RPS                            0: Flowmeter
FDIDEN.G/CC                        0: FDI Fluid Density
~Parameter Information
~A  Depth       LSPD        LTEN         GR         CCL          QP         TEMP        CWH         CWHC        ILS         QPSG        CFS        FDIDEN   
# ...
  2340.8640      9.9487    607.7510     13.2797  31799.3164   2506.1843     81.6871      1.0300  26196.2891      0.6184      1.0906      0.9528      1.1215
  2341.0164      9.9395    597.9009     13.4405  31793.2129   2506.4109     81.6883      1.0292  26202.9473      0.6042      1.0884      0.9458      1.1157
  2341.1688     10.0462    597.9009     14.0583  31875.6094   2506.6523     81.6987      1.0372  26139.8008      0.6020      1.0900      0.8693      1.1111
  2341.3212     10.0310    603.8109     14.8692  31799.3164   2506.8826     81.6978      1.0501  26038.9980      0.6068      1.1112      0.7770      1.1132
  2341.4736      9.9090    600.8559     15.6023  31822.2051   2507.1294     81.6927      1.0575  25981.0020      0.5824      1.1016      0.7233      1.1170
  2341.6260      9.8633    600.8559     16.1429  31870.5234   2507.3743     81.6938      1.0508  26033.0996      0.5781      1.1145      0.6497      1.1198
  2341.7784      9.9182    601.8409     16.7428  31792.5352   2507.6074     81.6987      1.0555  25996.5371      0.5602      1.0931      0.5934      1.1207
  2341.9308      9.9030    599.8709     17.5753  31804.4023   2507.8489     81.6938      1.0581  25976.5625      0.5330      1.1030      0.5012      1.1233
  2342.0832      9.9030    611.6910     18.0371  31745.9102   2508.0771     81.6814      1.0573  25982.3555      0.5011      1.1047      0.4803      1.1255
  2342.2356      9.8938    606.7659     17.1809  32679.2402   2508.3306     81.6790      1.0596  25964.5703      0.4724      1.1002      0.4694      1.1260
  2342.3880     10.0157    601.8409     15.1738  31753.5391   2508.5652     81.6819      1.0632  25936.7285      0.4367      1.0974      0.4830      1.1262
  2342.5404      9.9243    599.8709     13.3710  31848.1445   2508.8027     81.6859      1.0642  25928.7305      0.3998      1.0895      0.4510      1.1267
  2342.6928      9.8420    600.8559     12.5014  31840.0059   2509.0286     81.6871      1.0642  25928.1621      0.3840      1.1044      0.4267      1.1281
  2342.8452      9.8328    599.8709     12.0947  31816.7559   2509.2751     81.6790      1.0656  25917.2031      0.3681      1.0824      0.4191      1.1295
  2342.9976      9.9030    597.9009     11.9472  31846.7891   2509.5227     81.6859      1.0648  25923.8789      0.3521      1.1092      0.3730      1.1295
  2343.1500      9.8877    597.9009     12.5635  31791.6875   2509.7412     81.6819      1.0615  25949.9297      0.3416      1.0810      0.2720      1.1304
  2343.3024      9.9090    598.8859     13.8697  31860.3516   2509.9902     81.6845      1.0620  25945.9258      0.3307      1.0771      0.1712      1.1315
  2343.4548     10.0767    602.8259     14.8401  31875.6094   2510.2124     81.6790      1.0634  25934.7695      0.3188      1.0861      0.0933      1.1314
  2343.6072      9.9548    596.9159     14.8003  31804.0117   2510.4565     81.6845      1.0641  25929.5762      0.2905      1.0830      0.0454      1.1312
  2343.7596      9.9243    606.7659     14.2804  31951.9043   2510.6829     81.6859      1.0658  25916.1484      0.2857      1.0903      0.0155      1.1308
  2343.9120      9.9639    601.8409     14.3594  31843.7051   2510.9292     81.6859      1.0666  25910.0215      0.2811      1.0824      0.0047      1.1302
  2344.0644      9.9639    599.8709     15.5504  31848.1445   2511.1577     81.6871      1.0678  25900.3223      0.2704      1.0962      0.0239      1.1303
  2344.2168      9.9852    600.8559     17.2112  31871.4492   2511.3950     81.6904      1.0683  25896.6621      0.2705      1.0855      0.0539      1.1323
  2344.3692      9.9487    601.8409     17.9571  31878.6621   2511.6333     81.6927      1.0694  25887.4727      0.2761      1.1055      0.0794      1.1324
  2344.5216      9.9700    603.8109     16.9492  31819.6621   2511.8704     81.6904      1.0700  25883.0449      0.2786      1.1038      0.1012      1.1320
  2344.6740     10.0614    606.7659     14.7710  31778.9707   2512.1162     81.6987      1.0700  25883.3457      0.2722      1.1022      0.1402      1.1313
  2344.8264      9.9182    597.9009     12.8690  31822.2051   2512.3521     81.6967      1.0700  25882.9082      0.2627      1.0898      0.1796      1.1313
  2344.9788      9.8572    606.7659     12.1656  31836.8770   2512.5889     81.6927      1.0700  25883.1895      0.2417      1.0940      0.1479      1.1306
  2345.1312      9.9944    602.8259     12.2834  31837.4629   2512.8152     81.6938      1.0708  25876.7656      0.2292      1.0864      0.1193      1.1290
  2345.2836      9.9548    598.8859     12.2273  31782.6699   2513.0647     81.6916      1.0687  25893.2676      0.2425      1.0884      0.0926      1.1292
  2345.4360      9.9334    605.7809     11.6981  31840.0059   2513.2939     81.6938      1.0670  25906.7461      0.2540      1.1044      0.0642      1.1314
  2345.5884     10.0706    598.8859     11.3133  31790.5977   2513.5325     81.6927      1.0652  25920.3633      0.2499      1.0836      0.0214      1.1318
  2345.7408      9.9700    605.7809     11.6960  31808.9531   2513.7727     81.6938      1.0652  25921.0762      0.2507      1.0962      0.0015      1.1316
  2345.8932      9.9700    603.8109     12.9575  31814.5742   2514.0042     81.6957      1.0648  25923.8789      0.2522      1.0937      0.0557      1.1318
  2346.0456      9.8725    600.8559     14.8563  31901.0410   2514.2444     81.6927      1.0645  25926.4922      0.2634      1.0822      0.1284      1.1323
  2346.1980      9.9334    597.9009     16.8508  31852.7227   2514.4807     81.6978      1.0637  25932.6992      0.2754      1.0827      0.1879      1.1332
  2346.3504      9.9792    605.7809     18.1972  31826.4434   2514.7109     81.6996      1.0632  25936.6113      0.2951      1.0892      0.2364      1.1331
  2346.5028      9.9487    598.8859     18.4947  31829.8340   2514.9429     81.6996      1.0642  25928.5625      0.3123      1.0867      0.2799      1.1333
  2346.6552     10.0462    608.7360     18.0777  31833.2246   2515.1887     81.6987      1.0641  25929.1699      0.3353      1.0976      0.2895      1.1331
  2346.8076     10.0401    597.9009     17.5196  31853.5703   2515.4229     81.7004      1.0645  25926.0215      0.3803      1.0979      0.2091      1.1329
  2346.9600      9.9182    605.7809     16.8068  31799.3164   2515.6626     81.6957      1.0648  25923.8789      0.4269      1.0872      0.1532      1.1330
  2347.1124      9.9334    603.8109     15.5978  31819.6621   2515.8948     81.6927      1.0640  25930.3047      0.4649      1.0957      0.0934      1.1328
  2347.2648      9.9700    599.8709     14.2255  31822.2051   2516.1313     81.6891      1.0639  25930.6309      0.4838      1.0900      0.0816      1.1321
  2347.4172      9.9944    607.7510     13.5998  31819.6621   2516.3728     81.6859      1.0634  25934.5879      0.5157      1.1005      0.0833      1.1324
  2347.5696     10.0005    603.8109     14.1423  31790.5977   2516.6077     81.6891      1.0631  25936.8379      0.5594      1.1061      0.1686      1.1326
  2347.7220     10.0005    599.8709     15.3706  31808.9531   2516.8489     81.6916      1.0635  25934.3926      0.5824      1.1030      0.3347      1.1318
  2347.8744     10.0919    607.7510     16.5416  31819.6621   2517.0903     81.6916      1.0476  26058.9082      0.5968      1.1041      0.4611      1.1273
  2348.0268     10.0401    601.8409     17.4380  31812.5840   2517.3291     81.6916      1.0552  25998.7578      0.5968      1.1053      0.5826      1.1221
  2348.1792      9.9182    612.6760     18.2088  31795.2480   2517.5649     81.7136      1.0523  26021.6660      0.5900      1.0960      0.6654      1.1235
  2348.3316     10.0157    601.8409     18.7593  31759.5117   2517.8071     81.7407      1.0598  25962.6797      0.5816      1.1016      0.7681      1.1271
  2348.4840      9.9700    596.9159     18.9223  31824.4492   2518.0405     81.7533      1.0593  25966.7109      0.5640      1.1010      0.7026      1.1288
  2348.6364      9.9243    606.7659     18.8386  31776.4277   2518.2842     81.7555      1.0580  25977.0410      0.5591      1.0979      0.6376      1.1306
