~Version Information
VERS.                            2.0: CWLS Log ASCII STANDARD - VERSION 2.0
WRAP.                             NO: One line per depth step
~Well Information
STRT.M                        3.6576: START DEPTH
STOP.M                     2390.0892: STOP DEPTH
STEP.M                        0.1524: STEP
NULL.                      -999.2500: NULL VALUE
COMP.                               : COMPANY
WELL.                               : WELL
FLD.                                : FIELD
LOC.                                : LOCATION
DATE.                Wed Sep 11 08-05-24 2024: LOG DATE
SECT.                               : SECTION
TOWN.                               : TOWNSHIP
RANG.                               : RANGE
OS.                                 : OTHER SERVICES
PDAT.FT                             : PERMANENT DATUM
EEL.FT                              : ELEVATION
LMF.FT                              : LOG MEASURED FROM
DMF.FT                              : DRILLING MEASURED FROM
EKB.FT                              : KB
EDF.FT                              : DF
EGL.FT                              : GL
DATE1.                              : DATE1
RUN1.                               : RUN NUMBER
TDD1.FT                             : DEPTH DRILLER
TDL1.FT                             : DEPTH LOGGER
BLI1.FT                             : BOTTOM LOGGED INTERVAL
TLI1.FT                             : TOP LOG INTERVAL
CDD1.IN_FT                          : CASING DRILLER
CDL1.FT                             : CASING LOGGER
BS1.IN                              : BIT SIZE
DFT1.                               : TYPE FLUID IN HOLE
DFDV1.GM/C3_CP                      : DENSITY/VISCOSITY
DFPL1.C3                            : PH/FLUID LOSS
MSS1.                               : SOURCE OF SAMPLE
RMT1.OHHM_DEGF                      : RM@MEASURED TEMP
RMFT1.OHMM_DEGF                     : RMF@MEASURED TEMP
RMCT1.OHMM_DEGF                     : RMC@MEASURED TEMP
RMFS1.                              : SOURCE OF RMF/RMC
RMBT1.OHMM_DEGF                     : RM@BHT
TCS1.                               : TIME CIRCULATION STOPPED
TLOB1.                              : TIME LOGGER ON BOTTOM
BHT1.DEGF                           : MAXIMUM RECORDED TEMPERATURE
LUN1.                               : EQUIPMENT NUMBER
LUL1.                               : LOCATION
ENGI1.                              : RECORDED BY
WITN1.                              : WITNESSED BY
COMW.                               : Common Well Name
~Curve Information
DEPT.M                   0 000 00 00: Depth
LSPD.M/MIN                         0: Line Speed
LTEN.LB                            0: Surface Line Tension
GR.GAPI                            0: Gamma Ray
CCL.                               0: Casing Collar Locator
QP.PSI                             0: Quartz Pressure
TEMP.DEGC                          0: Downhole Temperature
CWH.                               0: Capacitance Water Holdup
CWHC.CPS                           0: CWH Counts
ILS.RPS                            0: Flowmeter
QPSG.                              0: Specific Gravity from QP
CFS.RPS                            0: Flowmeter
FDIDEN.G/CC                        0: FDI Fluid Density
~Parameter Information
~A  Depth       LSPD        LTEN         GR         CCL          QP         TEMP        CWH         CWHC        ILS         QPSG        CFS        FDIDEN   
# ...
   162.1536     49.1063     99.4875      7.8944  31860.3516    361.8202     66.6675      0.1230  33300.7813     18.1948      0.4052     35.1943      0.1724
   162.3060     49.1063     99.4875      6.3677  31921.3867    361.9380     66.6675      0.1225  33304.8516     18.2298      0.3888     35.2469      0.1628
   162.4584     49.1063    100.4725      5.6518  31738.2813    362.0451     66.6880      0.1221  33307.7578     18.0934      0.4034     35.0827      0.1661
   162.6108     49.1063    100.4725      5.2442  31616.2109    362.1147     66.6740      0.1215  33312.9883     18.0446      0.3835     35.0299      0.1745
   162.7632     49.1063     99.4875      4.7498  31707.7637    362.1700     66.6675      0.1230  33300.7813     17.9725      0.3665     34.9886      0.1731
   162.9156     49.3867     99.4875      4.5547  31677.2461    362.2705     66.6836      0.1227  33303.0000     18.0909      0.4162     34.9642      0.1641
   163.0680     49.3867     99.4875      5.4990  31738.2813    362.3629     66.6740      0.1261  33276.3672     18.0381      0.4552     35.0085      0.1634
   163.2204     49.3867     99.4875      7.9416  31860.3516    362.4756     66.6880      0.1246  33288.5742     18.2239      0.4440     35.0157      0.1723
   163.3728     49.3867     98.5025     10.7092  31707.7637    362.5647     66.7126      0.1238  33294.6797     18.3740      0.4525     35.1451      0.1715
   163.5252     49.3867     99.4875     11.5538  31921.3867    362.6554     66.7126      0.1228  33302.3086     18.3927      0.4377     35.0336      0.1706
   163.6776     49.3867     99.4875      9.4791  32043.4570    362.7552     66.6740      0.1234  33298.0703     18.4253      0.4591     35.0493      0.1764
   163.8300     49.4325     99.4875      5.9642  31829.8340    362.8550     66.6997      0.1238  33294.6797     18.4253      0.4469     35.0994      0.1766
   163.9824     49.4325     99.4875      3.2897  31901.0410    362.9627     66.6836      0.1230  33300.7813     18.4554      0.4207     35.1004      0.1742
   164.1348     49.4325     99.4875      2.5019  31860.3516    363.0429     66.6740      0.1230  33300.7813     18.5174      0.3776     35.0127      0.1733
   164.2872     49.4325    100.4725      3.4012  31768.7988    363.1199     66.7126      0.1232  33299.0391     18.4775      0.3789     35.1241      0.1821
   164.4396     49.4325    100.4725      5.3102  31692.5039    363.1824     66.7181      0.1247  33287.6367     18.5624      0.3975     35.3132      0.1848
   164.5920     49.2435     99.4875      7.1276  31829.8340    363.2913     66.7319      0.1215  33312.9883     18.6016      0.3924     35.3235      0.1745
   164.7444     49.2435    100.4725      7.6598  31860.3516    363.3875     66.6997      0.1225  33304.8516     18.5280      0.4445     35.3423      0.1630
   164.8968     49.2435     99.4875      6.7762  31921.3867    363.4601     66.7078      0.1238  33294.6797     18.4494      0.3412     35.3502      0.1715
   165.0492     49.2435     99.4875      5.6059  31890.8691    363.5678     66.6997      0.1238  33294.6797     18.5525      0.3246     35.2949      0.1796
   165.2016     49.2435     99.4875      5.1762  31768.7988    363.5871     66.7126      0.1215  33312.9883     18.5581      0.4362     35.1535      0.1778
   165.3540     49.6458     99.4875      5.4741  31890.8691    363.6689     66.7126      0.1234  33298.0703     18.3947      0.4357     35.0639      0.1711
   165.5064     49.6458     99.4875      5.8237  31933.5938    363.8383     66.6997      0.1218  33309.9375     18.3897      0.4823     34.9041      0.1682
   165.6588     49.6458     99.4875      5.6566  31860.3516    363.9456     66.6997      0.1238  33294.6797     18.4667      0.4534     34.8866      0.1670
   165.8112     49.6458     99.4875      5.1436  31890.8691    364.0052     66.7096      0.1232  33299.0391     18.4468      0.3723     34.9299      0.1693
   165.9636     49.6458    100.4725      4.9884  31829.8340    364.0620     66.7319      0.1230  33300.7813     18.3569      0.3050     34.7494      0.1737
   166.1160     49.6458     99.4875      5.3758  31585.6934    364.1612     66.7126      0.1225  33304.8516     18.1809      0.3448     34.5290      0.1757
   166.2684     49.6702     99.4875      5.9380  31738.2813    364.2100     66.7078      0.1241  33291.9023     18.2216      0.4309     34.4869      0.1723
   166.4208     49.6702     99.4875      6.7951  31778.9707    364.3042     66.7126      0.1238  33294.6797     18.2375      0.4158     34.4888      0.1748
   166.5732     49.6702    101.4575      8.3631  31768.7988    364.4356     66.7426      0.1246  33288.5742     18.1707      0.5326     34.5212      0.1767
   166.7256     49.6702    101.4575     10.2201  31921.3867    364.5217     66.7319      0.1246  33288.5742     18.2404      0.4960     34.5349      0.1696
   166.8780     49.6702     99.4875     11.4456  31799.3164    364.6718     66.7126      0.1238  33294.6797     18.1438      0.3667     34.7313      0.1719
   167.0304     49.2435     99.4875     11.8628  31799.3164    364.7343     66.7319      0.1216  33311.6328     17.9373      0.3647     34.8099      0.1717
   167.1828     49.2435    100.4725     11.9852  31860.3516    364.7535     66.7319      0.1246  33288.5742     17.8845      0.3020     34.7911      0.1640
   167.3352     49.2435     99.4875     11.9468  31890.8691    364.8379     66.6997      0.1225  33304.8516     17.9369      0.3564     34.8043      0.1607
   167.4876     49.2435     99.4875     11.3154  31778.9707    364.9336     66.7512      0.1238  33294.6797     17.9924      0.3963     34.6031      0.1687
   167.6400     49.2435    100.4725     10.2377  31738.2813    365.0432     66.7319      0.1238  33294.6797     17.8890      0.3637     34.6165      0.1791
   167.7924     48.9844     99.4875      9.7275  31738.2813    365.0971     66.7561      0.1227  33303.0000     17.8243      0.5018     34.5406      0.1783
   167.9448     48.9844     99.4875     10.0514  31829.8340    365.1532     66.7512      0.1238  33294.6797     17.7939      0.4918     34.3520      0.1752
   168.0972     48.9844    100.4725      9.9782  31738.2813    365.3687     66.7426      0.1238  33294.6797     17.7203      0.4161     34.3826      0.1738
   168.2496     48.9844    101.4575      8.4528  31799.3164    365.4696     66.7512      0.1225  33304.8516     17.6756      0.4739     34.5327      0.1696
   168.4020     48.9844    100.4725      6.1602  31880.6973    365.4579     66.7126      0.1246  33288.5742     17.6370      0.3520     34.5739      0.1584
   168.5544     48.9844    100.4725      4.8139  31860.3516    365.5641     66.7641      0.1234  33298.0703     17.7057      0.4249     34.5554      0.1635
   168.7068     49.2435    100.4725      5.3714  31829.8340    365.6739     66.7426      0.1215  33312.9883     17.5661      0.4646     34.7432      0.1649
   168.8592     49.2435    101.4575      7.3423  31778.9707    365.8380     66.7512      0.1234  33298.0703     17.7240      0.4169     34.9342      0.1662
   169.0116     49.2435     99.4875      9.3055  31738.2813    365.8607     66.7512      0.1230  33300.7813     17.8026      0.4101     35.1315      0.1666
   169.1640     49.2435     99.4875      9.8078  31799.3164    365.9256     66.7512      0.1225  33304.8516     17.7202      0.3881     35.0964      0.1622
   169.3164     49.2435     99.4875      8.4222  31738.2813    366.0295     66.7802      0.1232  33299.4961     17.6457      0.4369     35.1006      0.1601
   169.4688     49.2892    100.4725      6.2947  31738.2813    366.1746     66.7512      0.1246  33288.5742     17.6274      0.3263     34.9894      0.1661
   169.6212     49.2892    100.4725      5.1912  31707.7637    366.2395     66.7393      0.1238  33294.6797     17.4714      0.4523     34.8676      0.1780
   169.7736     49.2892     99.4875      5.7567  32080.0781    366.2085     66.7512      0.1238  33294.6797     17.5182      0.4421     34.9557      0.1834
   169.9260     49.2892     99.4875      7.1634  31646.7285    366.4216     66.7899      0.1230  33300.7813     17.6040      0.4796     34.9109      0.1775
