~Version Information
VERS.                            2.0: CWLS Log ASCII STANDARD - VERSION 2.0
WRAP.                             NO: One line per depth step
~Well Information
STRT.M                        3.6576: START DEPTH
STOP.M                     2390.0892: STOP DEPTH
STEP.M                        0.1524: STEP
NULL.                      -999.2500: NULL VALUE
COMP.                               : COMPANY
WELL.                               : WELL
FLD.                                : FIELD
LOC.                                : LOCATION
DATE.                Wed Sep 11 08-05-24 2024: LOG DATE
SECT.                               : SECTION
TOWN.                               : TOWNSHIP
RANG.                               : RANGE
OS.                                 : OTHER SERVICES
PDAT.FT                             : PERMANENT DATUM
EEL.FT                              : ELEVATION
LMF.FT                              : LOG MEASURED FROM
DMF.FT                              : DRILLING MEASURED FROM
EKB.FT                              : KB
EDF.FT                              : DF
EGL.FT                              : GL
DATE1.                              : DATE1
RUN1.                               : RUN NUMBER
TDD1.FT                             : DEPTH DRILLER
TDL1.FT                             : DEPTH LOGGER
BLI1.FT                             : BOTTOM LOGGED INTERVAL
TLI1.FT                             : TOP LOG INTERVAL
CDD1.IN_FT                          : CASING DRILLER
CDL1.FT                             : CASING LOGGER
BS1.IN                              : BIT SIZE
DFT1.                               : TYPE FLUID IN HOLE
DFDV1.GM/C3_CP                      : DENSITY/VISCOSITY
DFPL1.C3                            : PH/FLUID LOSS
MSS1.                               : SOURCE OF SAMPLE
RMT1.OHHM_DEGF                      : RM@MEASURED TEMP
RMFT1.OHMM_DEGF                     : RMF@MEASURED TEMP
RMCT1.OHMM_DEGF                     : RMC@MEASURED TEMP
RMFS1.                              : SOURCE OF RMF/RMC
RMBT1.OHMM_DEGF                     : RM@BHT
TCS1.                               : TIME CIRCULATION STOPPED
TLOB1.                              : TIME LOGGER ON BOTTOM
BHT1.DEGF                           : MAXIMUM RECORDED TEMPERATURE
LUN1.                               : EQUIPMENT NUMBER
LUL1.                               : LOCATION
ENGI1.                              : RECORDED BY
WITN1.                              : WITNESSED BY
COMW.                               : Common Well Name
~Curve Information
DEPT.M                   0 000 00 00: Depth
LSPD.M/MIN                         0: Line Speed
LTEN.LB                            0: Surface Line Tension
GR.GAPI                            0: Gamma Ray
CCL.                               0: Casing Collar Locator
QP.PSI                             0: Quartz Pressure
TEMP.DEGC                          0: Downhole Temperature
CWH.                               0: Capacitance Water Holdup
CWHC.CPS                           0: CWH Counts
ILS.RPS                            0: Flowmeter
QPSG.                              0: Specific Gravity from QP
CFS.RPS                            0: Flowmeter
FDIDEN.G/CC                        0: FDI Fluid Density
~Parameter Information
~A  Depth       LSPD        LTEN         GR         CCL          QP         TEMP        CWH         CWHC        ILS         QPSG        CFS        FDIDEN   
# ...
  2222.6016     12.3231    470.8350      7.0094  31785.2305   2272.4141     80.2527      0.3543  31489.1582      1.9294      0.7090      3.3268      0.8412
  2222.7540     12.2225    471.8200      7.4968  31842.9121   2272.5894     80.2494      0.3557  31478.2188      1.9311      0.7203      3.3163      0.8415
  2222.9064     12.2225    472.8050      7.5010  31761.5332   2272.7227     80.2533      0.3557  31477.8652      1.9365      0.7203      3.2776      0.8410
  2223.0588     12.3444    471.8200      7.0897  31895.2285   2272.8914     80.2494      0.3566  31471.4297      1.9478      0.7268      3.2468      0.8403
  2223.2112     12.3383    474.7751      6.9030  30654.9063   2273.0386     80.2485      0.3559  31476.3379      1.9590      0.7592      3.2103      0.8406
  2223.3636     12.3383    472.8050      7.3977  31632.4863   2273.2195     80.2538      0.3564  31472.4395      1.9504      0.7243      3.1639      0.8417
  2223.5160     12.2834    472.8050      8.3750  32058.7148   2273.3809     80.2533      0.3574  31465.0762      2.0043      0.7454      3.1112      0.8415
  2223.6684     12.4297    475.7600      9.4273  32073.9746   2273.5193     80.2485      0.3572  31466.7363      2.0769      0.7507      3.0792      0.8411
  2223.8208     12.3840    472.8050     10.4995  31808.0352   2273.6848     80.2510      0.3563  31473.3633      2.1521      0.7845      3.0169      0.8429
  2223.9732     12.3840    475.7600     11.6688  31842.9121   2273.8704     80.2538      0.3587  31454.3965      2.2234      0.8099      2.9641      0.8429
  2224.1256     12.3139    473.7900     12.7617  24737.1895   2274.0610     80.2533      0.3571  31467.3438      2.2968      0.8110      2.9509      0.8450
  2224.2780     12.2530    476.7451     13.6512  51338.1953   2274.2214     80.2552      0.3552  31481.6836      2.3686      0.8239      2.9263      0.8463
  2224.4304     12.2773    474.7751     14.4868  31814.5742   2274.3879     80.2527      0.3570  31468.1680      2.4290      0.8146      3.0198      0.8441
  2224.5828     12.2773    475.7600     15.2921  31822.7910   2274.5847     80.2538      0.3566  31470.7656      2.4912      0.8493      3.1270      0.8437
  2224.7352     12.3292    474.7751     15.9204  31816.7559   2274.7673     80.2533      0.3529  31500.2441      2.5611      0.8400      3.2995      0.8465
  2224.8876     12.2926    476.7451     16.5122  31819.6621   2274.9578     80.2622      0.3527  31501.6152      2.6254      0.8079      3.4233      0.8433
  2225.0400     12.5364    474.7751     17.3782  31825.4746   2275.1162     80.2552      0.3521  31506.5977      2.6855      0.8152      3.5833      0.8429
  2225.1924     12.5364    477.7301     18.3365  31825.4746   2275.2852     80.2618      0.3523  31504.9922      2.7451      0.7992      3.6856      0.8463
  2225.3448     12.4054    477.7301     18.7484  31819.6621   2275.4741     80.2577      0.3540  31491.3027      2.8283      0.8197      3.7169      0.8523
  2225.4972     12.2773    477.7301     18.4491  31816.7559   2275.6506     80.2552      0.3527  31501.9316      2.8497      0.8211      3.7185      0.8465
  2225.6496     12.4054    477.7301     18.0543  31822.2051   2275.8269     80.2666      0.3517  31509.7246      2.8542      0.8065      3.7142      0.8433
  2225.8020     12.4054    477.7301     18.1068  31822.2051   2275.9971     80.2618      0.3519  31507.7031      2.8572      0.8045      3.6995      0.8436
  2225.9544     12.3231    476.7451     18.5194  31819.6621   2276.1733     80.2533      0.3525  31502.8594      2.8577      0.8054      3.6751      0.8423
  2226.1068     12.3078    479.7001     18.8608  31827.0605   2276.3481     80.2573      0.3512  31513.2891      2.8542      0.8245      3.6533      0.8428
  2226.2592     12.3139    476.7451     18.6200  31822.2051   2276.5251     80.2618      0.3517  31509.7246      2.8602      0.8152      3.6450      0.8447
  2226.4116     12.3139    478.7151     17.4895  31825.4746   2276.7119     80.2577      0.3521  31506.3477      2.8664      0.8183      3.6308      0.8447
  2226.5640     12.3231    477.7301     15.9151  31816.7559   2276.8801     80.2641      0.3514  31512.0039      2.8711      0.8200      3.6231      0.8442
  2226.7164     12.3292    477.7301     15.0909  31809.4883   2277.0576     80.2573      0.3518  31508.5020      2.8693      0.8175      3.6203      0.8452
  2226.8688     12.2682    481.6701     16.2622  31822.7910   2277.2361     80.2717      0.3517  31509.0879      2.8589      0.8237      3.6387      0.8458
  2227.0212     12.2682    480.6851     20.1110  31819.6621   2277.4207     80.2577      0.3526  31502.1016      2.8572      0.8228      3.6244      0.8456
  2227.1736     12.4968    480.6851     25.9720  31811.5234   2277.5942     80.2620      0.3515  31511.1738      2.8535      0.8152      3.6178      0.8454
  2227.3260     12.3901    481.6701     31.3300  31827.0605   2277.7710     80.2666      0.3510  31514.9180      2.8427      0.8059      3.6317      0.8435
  2227.4784     12.3901    481.6701     33.5715  31808.0352   2277.9429     80.2666      0.3507  31517.0293      2.8364      0.8093      3.6243      0.8428
  2227.6308     12.3139    482.6551     32.4648  31822.2051   2278.1194     80.2656      0.3509  31515.8418      2.8328      0.8161      3.6500      0.8421
  2227.7832     12.5059    482.6551     29.7606  31832.1816   2278.2959     80.2641      0.3505  31519.1816      2.8318      0.8118      3.6605      0.8419
  2227.9356     12.3535    482.6551     27.0044  31819.6621   2278.4785     80.2717      0.3502  31521.5449      2.8312      0.8104      3.6845      0.8427
  2228.0880     12.3535    483.6401     24.6818  31835.9375   2278.6467     80.2661      0.3498  31524.0352      2.8344      0.8132      3.6967      0.8424
  2228.2404     12.2530    481.6701     22.7430  31808.0352   2278.8220     80.2680      0.3514  31512.0039      2.8281      0.8186      3.7222      0.8415
  2228.3928     12.4145    481.6701     21.1643  31811.5234   2279.0010     80.2661      0.3514  31512.0039      2.8291      0.8186      3.7174      0.8400
  2228.5452     12.3292    482.6551     20.0558  31838.1563   2279.1882     80.2622      0.3510  31514.9180      2.8294      0.8203      3.7152      0.8396
  2228.6976     12.3292    480.6851     19.6157  31825.4746   2279.3564     80.2744      0.3514  31511.9434      2.8204      0.8284      3.6724      0.8401
  2228.8500     12.2834    484.6251     19.8696  31832.6074   2279.5332     80.2661      0.3511  31514.0117      2.8194      0.8087      3.6969      0.8433
  2229.0024     12.3535    485.6101     20.1844  31813.4023   2279.7192     80.2761      0.3510  31514.9824      2.8200      0.8132      3.6870      0.8445
  2229.1548     12.3231    481.6701     19.6302  31829.8340   2279.8894     80.2717      0.3517  31509.0879      2.8166      0.8220      3.7029      0.8444
  2229.3072     12.3231    484.6251     18.0989  31813.4023   2280.0615     80.2661      0.3509  31515.8418      2.8207      0.8101      3.7370      0.8446
  2229.4596     12.3231    481.6701     16.4520  31822.2051   2280.2458     80.2680      0.3515  31511.1738      2.8219      0.8149      3.7894      0.8424
  2229.6120     12.2316    486.5951     15.6474  31819.6621   2280.4216     80.2661      0.3514  31512.0039      2.8196      0.8166      3.7861      0.8426
  2229.7644     12.4663    485.6101     16.0214  31809.4883   2280.5959     80.2645      0.3517  31509.7246      2.8239      0.8166      3.7704      0.8439
  2229.9168     12.4663    480.6851     17.0749  31825.4746   2280.7695     80.2698      0.3523  31504.5293      2.8210      0.8110      3.7556      0.8443
  2230.0692     12.3292    484.6251     18.0540  31819.6621   2280.9539     80.2620      0.3510  31514.9824      2.8186      0.8265      3.6990      0.8442
  2230.2216     12.2682    484.6251     18.8598  31823.7305   2281.1248     80.2707      0.3515  31510.7871      2.8170      0.8268      3.6760      0.8442
  2230.3740     12.4663    484.6251     19.8222  31819.6621   2281.3125     80.2707      0.3533  31496.8535      2.8199      0.8270      3.6683      0.8456
