~Version Information
VERS.                            2.0: CWLS Log ASCII STANDARD - VERSION 2.0
WRAP.                             NO: One line per depth step
~Well Information
STRT.M                     2229.9168: START DEPTH
STOP.M                     2385.0600: STOP DEPTH
STEP.M                        0.1524: STEP
NULL.                      -999.2500: NULL VALUE
COMP.                               : COMPANY
WELL.                               : WELL
FLD.                                : FIELD
LOC.                                : LOCATION
DATE.                Wed Sep 11 12-22-31 2024: LOG DATE
SECT.                               : SECTION
TOWN.                               : TOWNSHIP
RANG.                               : RANGE
OS.                                 : OTHER SERVICES
PDAT.FT                             : PERMANENT DATUM
EEL.FT                              : ELEVATION
LMF.FT                              : LOG MEASURED FROM
DMF.FT                              : DRILLING MEASURED FROM
EKB.FT                              : KB
EDF.FT                              : DF
EGL.FT                              : GL
DATE1.                              : DATE1
RUN1.                               : RUN NUMBER
TDD1.FT                             : DEPTH DRILLER
TDL1.FT                             : DEPTH LOGGER
BLI1.FT                             : BOTTOM LOGGED INTERVAL
TLI1.FT                             : TOP LOG INTERVAL
CDD1.IN_FT                          : CASING DRILLER
CDL1.FT                             : CASING LOGGER
BS1.IN                              : BIT SIZE
DFT1.                               : TYPE FLUID IN HOLE
DFDV1.GM/C3_CP                      : DENSITY/VISCOSITY
DFPL1.C3                            : PH/FLUID LOSS
MSS1.                               : SOURCE OF SAMPLE
RMT1.OHHM_DEGF                      : RM@MEASURED TEMP
RMFT1.OHMM_DEGF                     : RMF@MEASURED TEMP
RMCT1.OHMM_DEGF                     : RMC@MEASURED TEMP
RMFS1.                              : SOURCE OF RMF/RMC
RMBT1.OHMM_DEGF                     : RM@BHT
TCS1.                               : TIME CIRCULATION STOPPED
TLOB1.                              : TIME LOGGER ON BOTTOM
BHT1.DEGF                           : MAXIMUM RECORDED TEMPERATURE
LUN1.                               : EQUIPMENT NUMBER
LUL1.                               : LOCATION
ENGI1.                              : RECORDED BY
WITN1.                              : WITNESSED BY
COMW.                               : Common Well Name
~Curve Information
DEPT.M                   0 000 00 00: Depth
LSPD.M/MIN                         0: Line Speed
LTEN.LB                            0: Surface Line Tension
GR.GAPI                            0: Gamma Ray
CCL.                               0: Casing Collar Locator
QP.PSI                             0: Quartz Pressure
TEMP.DEGC                          0: Downhole Temperature
CWH.                               0: Capacitance Water Holdup
CWHC.CPS                           0: CWH Counts
ILS.RPS                            0: Flowmeter
QPSG.                              0: Specific Gravity from QP
CFS.RPS                            0: Flowmeter
FDIDEN.G/CC                        0: FDI Fluid Density
~Parameter Information
~A  Depth       LSPD        LTEN         GR         CCL          QP         TEMP        CWH         CWHC        ILS         QPSG        CFS        FDIDEN   
# ...
  2277.4656      9.8024    584.1108     12.8451  31814.5742   2429.3333     80.4434      0.3233  31731.6230      1.7778      0.8177      2.4095      0.8389
  2277.6180      9.7262    585.0958     12.7983  31804.4023   2429.5085     80.4492      0.3249  31719.6602      1.7755      0.8203      2.3542      0.8386
  2277.7704      9.7262    588.0508     12.7937  31840.0059   2429.6890     80.4396      0.3258  31712.5820      1.7793      0.8118      2.3279      0.8385
  2277.9228      9.7963    585.0958     13.1554  31849.2539   2429.8674     80.4434      0.3270  31703.1094      1.7805      0.8222      2.3451      0.8380
  2278.0752      9.8115    594.9459     13.6846  31811.5234   2430.0371     80.4416      0.3241  31725.4316      1.7776      0.8146      2.3396      0.8383
  2278.2276      9.7810    587.0658     13.8547  31826.4434   2430.2214     80.4420      0.3249  31719.0078      1.7832      0.8065      2.3112      0.8391
  2278.3800      9.8481    584.1108     13.4852  31848.1445   2430.3953     80.4458      0.3282  31693.3086      1.7861      0.8242      2.3681      0.8381
  2278.5324      9.9182    588.0508     12.8466  31840.0059   2430.5667     80.4449      0.3249  31719.0078      1.7867      0.8087      2.4176      0.8374
  2278.6848      9.8420    588.0508     12.1979  31817.6270   2430.7517     80.4464      0.3247  31721.1484      1.7915      0.8163      2.4372      0.8381
  2278.8372      9.8328    587.0658     11.6365  31837.4629   2430.9226     80.4434      0.3245  31722.1582      1.7772      0.8121      2.4069      0.8393
  2278.9896      9.9548    591.0059     11.2302  31821.2891   2431.1030     80.4470      0.3259  31711.6484      1.7786      0.8104      2.3965      0.8392
  2279.1420      9.8268    584.1108     10.9271  31815.3789   2431.2708     80.4497      0.3251  31717.5527      1.7725      0.8104      2.3604      0.8394
  2279.2944      9.8024    590.0208     10.5741  31819.6621   2431.4543     80.4434      0.3277  31697.5918      1.7616      0.8025      2.3831      0.8405
  2279.4468      9.9852    587.0658     10.1136  31831.6289   2431.6252     80.4475      0.3273  31700.3965      1.7616      0.8135      2.3851      0.8403
  2279.5992      9.8786    584.1108      9.6004  31795.7266   2431.7988     80.4480      0.3255  31714.7246      1.7547      0.8031      2.4103      0.8391
  2279.7516      9.8328    587.0658      9.2845  31812.5840   2431.9761     80.4475      0.3254  31715.5215      1.7451      0.8144      2.3714      0.8385
  2279.9040      9.8328    587.0658      9.6316  31819.6621   2432.1506     80.4497      0.3252  31717.2344      1.7508      0.8132      2.4002      0.8377
  2280.0564      9.9852    590.0208     10.8738  31807.2773   2432.3313     80.4500      0.3238  31727.9355      1.7441      0.8158      2.3405      0.8369
  2280.2088      9.8725    589.0358     12.7957  31833.2246   2432.5039     80.4464      0.3292  31685.6230      1.7434      0.8065      2.3248      0.8376
  2280.3612      9.8725    584.1108     15.0567  31838.8105   2432.6833     80.4470      0.3269  31704.0156      1.7464      0.8039      2.2656      0.8390
  2280.5136      9.8877    588.0508     17.2095  31659.2949   2432.8499     80.4531      0.3253  31716.0859      1.7604      0.8121      2.2796      0.8389
  2280.6660      9.8877    589.0358     18.5144  31868.4902   2433.0283     80.4533      0.3255  31714.7246      1.7610      0.8025      2.3500      0.8380
  2280.8184      9.9090    585.0958     18.4062  31801.9707   2433.2080     80.4500      0.3251  31717.5918      1.7701      0.8113      2.4029      0.8382
  2280.9708      9.8268    587.0658     17.1399  31788.5449   2433.3792     80.4464      0.3271  31702.3789      1.7670      0.7963      2.4104      0.8384
  2281.1232      9.9487    589.0358     15.6462  31831.0547   2433.5532     80.4406      0.3259  31711.6484      1.7697      0.7913      2.4412      0.8397
  2281.2756      9.8725    591.0059     14.8414  31828.2285   2433.7188     80.4464      0.3243  31723.9199      1.7702      0.8054      2.4628      0.8391
  2281.4280      9.8024    588.0508     15.0432  31776.4277   2433.8940     80.4500      0.3263  31708.2988      1.7646      0.8130      2.4849      0.8384
  2281.5804      9.9639    586.0808     15.7115  31833.8145   2434.0774     80.4492      0.3241  31725.8672      1.7712      0.8169      2.5071      0.8381
  2281.7328      9.8877    588.0508     15.8326  31814.5742   2434.2581     80.4533      0.3241  31725.4316      1.7774      0.8113      2.5500      0.8380
  2281.8852      9.8877    589.0358     14.8897  31799.3164   2434.4270     80.4531      0.3225  31738.2813      1.7851      0.8096      2.5454      0.8379
  2282.0376      9.8633    586.0808     13.3896  31837.4629   2434.5974     80.4497      0.3233  31731.6230      1.7907      0.7958      2.5711      0.8385
  2282.1900      9.9090    590.0208     12.3300  31835.9375   2434.7793     80.4566      0.3238  31728.2754      1.7846      0.8048      2.5569      0.8403
  2282.3424      9.8877    587.0658     12.3015  31802.5293   2434.9480     80.4568      0.3243  31723.9199      1.7859      0.8135      2.5177      0.8402
  2282.4948      9.8633    587.0658     13.1601  31835.9375   2435.1248     80.4566      0.3239  31727.5742      1.7776      0.8068      2.4576      0.8397
  2282.6472      9.8024    590.0208     14.3851  31834.6523   2435.3027     80.4569      0.3246  31721.7285      1.7868      0.8183      2.4471      0.8389
  2282.7996      9.9700    587.0658     15.4271  31837.4629   2435.4788     80.4533      0.3225  31738.2813      1.7861      0.8068      2.4481      0.8386
  2282.9520      9.8938    589.0358     15.7929  31831.0547   2435.6575     80.4566      0.3233  31732.0742      1.7954      0.8070      2.4231      0.8390
  2283.1044      9.8481    591.0059     15.4456  31811.5234   2435.8242     80.4601      0.3225  31738.2813      1.7958      0.8039      2.4207      0.8397
  2283.2568      9.9944    585.0958     15.0997  31824.7480   2436.0024     80.4566      0.3256  31713.8672      1.7930      0.8096      2.4416      0.8381
  2283.4092      9.8572    590.0208     15.5753  31805.4199   2436.1758     80.4566      0.3234  31731.3711      1.7925      0.8268      2.4556      0.8378
  2283.5616      9.8328    589.0358     16.8827  31806.0977   2436.3594     80.4566      0.3231  31733.8418      1.7917      0.8141      2.4576      0.8383
  2283.7140      9.8633    586.0808     18.0655  31812.8789   2436.5410     80.4605      0.3236  31729.7148      1.7928      0.8149      2.4480      0.8383
  2283.8664      9.8633    590.0208     18.0274  31837.4629   2436.7083     80.4566      0.3230  31733.9980      1.7810      0.8079      2.5000      0.8390
  2284.0188      9.8633    584.1108     16.6362  31834.9199   2436.8823     80.4568      0.3249  31719.6602      1.7466      0.8155      2.5018      0.8389
  2284.1712      9.8877    590.0208     14.7578  31787.1094   2437.0598     80.4533      0.3243  31724.4629      1.7366      0.8231      2.4931      0.8388
  2284.3236      9.8572    589.0358     13.4731  31822.2051   2437.2480     80.4566      0.3252  31716.8652      1.5977      0.8242      2.4776      0.8393
  2284.4760      9.9639    583.1258     13.6856  31799.3164   2437.4219     80.4569      0.3235  31730.0059      1.4614      0.8231      2.4669      0.8393
  2284.6284      9.9243    588.0508     15.8179  31806.9453   2437.5969     80.4601      0.3252  31716.8652      1.3147      0.8113      2.4393      0.8392
  2284.7808      9.7963    588.0508     19.2004  31805.4199   2437.7734     80.4569      0.3246  31721.7285      1.1770      0.8177      2.4513      0.8394
  2284.9332      9.8877    589.0358     22.0708  31833.2246   2437.9514     80.4601      0.3241  31725.4316      1.0385      0.8208      2.5111      0.8386
  2285.0856      9.8786    591.0059     22.9013  31812.3945   2438.1309     80.4627      0.3247  31721.1484      0.9062      0.8228      2.5570      0.8382
  2285.2380      9.8725    587.0658     21.8913  31826.4434   2438.3086     80.4601      0.3237  31728.7070      0.7750      0.8197      2.5831      0.8390
