~Version Information
VERS.                            2.0: CWLS Log ASCII STANDARD - VERSION 2.0
WRAP.                             NO: One line per depth step
~Well Information
STRT.M                     2229.9168: START DEPTH
STOP.M                     2385.0600: STOP DEPTH
STEP.M                        0.1524: STEP
NULL.                      -999.2500: NULL VALUE
COMP.                               : COMPANY
WELL.                               : WELL
FLD.                                : FIELD
LOC.                                : LOCATION
DATE.                Wed Sep 11 12-22-31 2024: LOG DATE
SECT.                               : SECTION
TOWN.                               : TOWNSHIP
RANG.                               : RANGE
OS.                                 : OTHER SERVICES
PDAT.FT                             : PERMANENT DATUM
EEL.FT                              : ELEVATION
LMF.FT                              : LOG MEASURED FROM
DMF.FT                              : DRILLING MEASURED FROM
EKB.FT                              : KB
EDF.FT                              : DF
EGL.FT                              : GL
DATE1.                              : DATE1
RUN1.                               : RUN NUMBER
TDD1.FT                             : DEPTH DRILLER
TDL1.FT                             : DEPTH LOGGER
BLI1.FT                             : BOTTOM LOGGED INTERVAL
TLI1.FT                             : TOP LOG INTERVAL
CDD1.IN_FT                          : CASING DRILLER
CDL1.FT                             : CASING LOGGER
BS1.IN                              : BIT SIZE
DFT1.                               : TYPE FLUID IN HOLE
DFDV1.GM/C3_CP                      : DENSITY/VISCOSITY
DFPL1.C3                            : PH/FLUID LOSS
MSS1.                               : SOURCE OF SAMPLE
RMT1.OHHM_DEGF                      : RM@MEASURED TEMP
RMFT1.OHMM_DEGF                     : RMF@MEASURED TEMP
RMCT1.OHMM_DEGF                     : RMC@MEASURED TEMP
RMFS1.                              : SOURCE OF RMF/RMC
RMBT1.OHMM_DEGF                     : RM@BHT
TCS1.                               : TIME CIRCULATION STOPPED
TLOB1.                              : TIME LOGGER ON BOTTOM
BHT1.DEGF                           : MAXIMUM RECORDED TEMPERATURE
LUN1.                               : EQUIPMENT NUMBER
LUL1.                               : LOCATION
ENGI1.                              : RECORDED BY
WITN1.                              : WITNESSED BY
COMW.                               : Common Well Name
~Curve Information
DEPT.M                   0 000 00 00: Depth
LSPD.M/MIN                         0: Line Speed
LTEN.LB                            0: Surface Line Tension
GR.GAPI                            0: Gamma Ray
CCL.                               0: Casing Collar Locator
QP.PSI                             0: Quartz Pressure
TEMP.DEGC                          0: Downhole Temperature
CWH.                               0: Capacitance Water Holdup
CWHC.CPS                           0: CWH Counts
ILS.RPS                            0: Flowmeter
QPSG.                              0: Specific Gravity from QP
CFS.RPS                            0: Flowmeter
FDIDEN.G/CC                        0: FDI Fluid Density
~Parameter Information
~A  Depth       LSPD        LTEN         GR         CCL          QP         TEMP        CWH         CWHC        ILS         QPSG        CFS        FDIDEN   
  2229.9168      9.4214    562.4406     13.5017  31819.6621   2374.3701     80.2519      0.3303  31677.2461      1.8957      0.8076      2.9653      0.8369
  2230.0692     12.4145    569.3357     15.0870  31821.8027   2374.5537     80.2541      0.3290  31687.0898      1.9042      0.8107      2.8873      0.8368
  2230.2216     12.4145    572.2907     17.0804  31819.6621   2374.7312     80.2656      0.3318  31665.0391      1.8884      0.8144      2.7960      0.8369
  2230.3740     15.4442    575.2457     18.8204  31829.8340   2374.9004     80.2622      0.3287  31689.4531      1.8635      0.8262      2.7923      0.8364
  2230.5264     15.4442    569.3357     19.7473  31822.2051   2375.0762     80.2618      0.3287  31689.4531      1.8413      0.8059      2.8279      0.8362
  2230.6788     16.2733    563.4257     19.9159  31828.5078   2375.2700     80.2620      0.3322  31661.9883      1.8525      0.8101      2.8184      0.8369
  2230.8312     16.2733    563.4257     19.9167  31817.2676   2375.4299     80.2575      0.3311  31670.4648      1.8640      0.8138      2.8687      0.8365
  2230.9836     15.8161    572.2907     20.0607  31823.1992   2375.6028     80.2645      0.3295  31683.4746      1.8541      0.8051      2.8968      0.8361
  2231.1360     15.1394    578.2007     20.1348  31817.2676   2375.7817     80.2618      0.3315  31667.7520      1.8360      0.8163      2.8616      0.8369
  2231.2884     13.9903    573.2757     19.9578  31811.5234   2375.9680     80.2579      0.3293  31684.6895      1.8458      0.8121      2.7787      0.8375
  2231.4408     13.9903    565.3956     19.5890  31824.4492   2376.1377     80.2579      0.3304  31676.2109      1.8523      0.8270      2.6964      0.8377
  2231.5932     12.9784    567.3657     19.1589  31813.4023   2376.3069     80.2547      0.3295  31683.5605      1.8403      0.8068      2.6315      0.8373
  2231.7456     12.5882    569.3357     18.9135  31821.8027   2376.4988     80.2598      0.3281  31694.2559      1.8370      0.8101      2.5818      0.8372
  2231.8980     11.8506    577.2158     19.1175  31831.6289   2376.6675     80.2598      0.3307  31673.9160      1.8515      0.8211      2.5329      0.8372
  2232.0504     11.1191    573.2757     19.6440  31814.5742   2376.8401     80.2582      0.3294  31683.7852      1.8638      0.8006      2.4344      0.8372
  2232.2028     10.5491    569.3357     19.8633  31827.0605   2377.0188     80.2656      0.3302  31678.2461      1.8614      0.8076      2.3898      0.8374
  2232.3552     10.5491    572.2907     19.2265  31819.6621   2377.1929     80.2615      0.3315  31667.6094      1.8572      0.8113      2.4229      0.8371
  2232.5076      9.9334    574.2607     18.0477  31826.4434   2377.3677     80.2580      0.3301  31678.2813      1.8676      0.8082      2.4473      0.8370
  2232.6600      9.7963    571.3057     17.5961  31812.8789   2377.5435     80.2617      0.3293  31684.7422      1.8694      0.8073      2.4292      0.8377
  2232.8124      9.8115    574.2607     18.8840  31849.2539   2377.7195     80.2614      0.3288  31688.6250      1.8673      0.8079      2.3955      0.8381
  2232.9648      9.9243    572.2907     20.8649  31842.0410   2377.8928     80.2651      0.3319  31664.5781      1.8725      0.8017      2.3846      0.8378
  2233.1172      9.7810    573.2757     20.9605  31823.7305   2378.0681     80.2615      0.3317  31665.8672      1.8760      0.8020      2.4109      0.8384
  2233.2696      9.7414    574.2607     18.2665  31817.6270   2378.2385     80.2690      0.3299  31680.3496      1.8633      0.8130      2.4188      0.8379
  2233.4220      9.9182    570.3207     14.6307  31851.6328   2378.4148     80.2648      0.3316  31667.2578      1.8594      0.8062      2.4083      0.8370
  2233.5744      9.8420    574.2607     12.1804  31818.0957   2378.5977     80.2645      0.3296  31682.7949      1.8629      0.8194      2.3967      0.8368
  2233.7268      9.8268    571.3057     11.3984  31837.4629   2378.7671     80.2684      0.3307  31673.6563      1.8592      0.8146      2.4228      0.8366
  2233.8792      9.9700    574.2607     11.4444  31817.6270   2378.9490     80.2678      0.3332  31654.7598      1.8528      0.8090      2.4109      0.8370
  2234.0316      9.8420    574.2607     11.3112  31823.7305   2379.1211     80.2580      0.3369  31625.0879      1.8489      0.8141      2.3712      0.8370
  2234.1840      9.7566    575.2457     10.5733  31845.0938   2379.2991     80.2648      0.3318  31665.4668      1.8449      0.8054      2.3858      0.8363
  2234.3364      9.7871    574.2607      9.2802  31829.8340   2379.4729     80.2656      0.3304  31676.2461      1.8494      0.8099      2.3970      0.8355
  2234.4888      9.8024    573.2757      7.6939  31826.4434   2379.6472     80.2648      0.3307  31673.9160      1.8412      0.8020      2.3699      0.8364
  2234.6412      9.8024    571.3057      6.2804  31829.8340   2379.8232     80.2732      0.3299  31680.3496      1.8385      0.8155      2.4072      0.8377
  2234.7936      9.7810    578.2007      5.3499  31812.8789   2379.9944     80.2684      0.3294  31684.4883      1.8428      0.8172      2.4284      0.8374
  2234.9460      9.8481    573.2757      4.7464  31835.9375   2380.1799     80.2714      0.3286  31690.6953      1.8385      0.8115      2.4263      0.8370
  2235.0984      9.9090    573.2757      4.2648  31817.2676   2380.3557     80.2722      0.3301  31678.3984      1.8422      0.8293      2.4291      0.8376
  2235.2508      9.7963    576.2307      4.0028  31814.5742   2380.5269     80.2678      0.3291  31686.8828      1.8524      0.8141      2.4655      0.8383
  2235.4032      9.7810    575.2457      4.1193  31831.0547   2380.7134     80.2651      0.3310  31671.8926      1.8570      0.8172      2.4785      0.8377
  2235.5556      9.8786    575.2457      4.5769  31810.0879   2380.8857     80.2684      0.3293  31685.0137      1.8594      0.8251      2.4673      0.8369
  2235.7080      9.8268    575.2457      5.1759  31825.4746   2381.0642     80.2678      0.3296  31682.5996      1.8642      0.8115      2.4787      0.8359
  2235.8604      9.8115    575.2457      5.6940  31824.4492   2381.2422     80.2714      0.3283  31692.8047      1.8644      0.8155      2.4825      0.8357
  2236.0128      9.9487    579.1857      5.9501  31795.2480   2381.4170     80.2714      0.3274  31699.7324      1.8590      0.8194      2.5017      0.8369
  2236.1652      9.8572    575.2457      5.8834  31849.7363   2381.5928     80.2684      0.3279  31696.1113      1.8584      0.8161      2.5385      0.8378
  2236.3176      9.7414    574.2607      5.6202  31837.4629   2381.7747     80.2699      0.3279  31696.1113      1.8616      0.8192      2.5348      0.8380
  2236.4700      9.8024    577.2158      5.2807  31819.6621   2381.9497     80.2732      0.3284  31692.2539      1.8701      0.8242      2.5408      0.8377
  2236.6224      9.7810    573.2757      4.8327  31823.7305   2382.1272     80.2684      0.3299  31680.4590      1.8658      0.8234      2.5553      0.8371
  2236.7748      9.7810    576.2307      4.2787  31860.3516   2382.3074     80.2690      0.3270  31703.1094      1.8656      0.8172      2.5556      0.8373
  2236.9272      9.7658    575.2457      3.7589  31793.2129   2382.4885     80.2752      0.3295  31683.5605      1.8615      0.8253      2.5067      0.8366
  2237.0796      9.9182    575.2457      3.3439  31826.4434   2382.6582     80.2728      0.3280  31694.8320      1.8623      0.8146      2.5041      0.8352
  2237.2320      9.8786    577.2158      3.0075  31824.7480   2382.8428     80.2732      0.3280  31695.4492      1.8531      0.8189      2.5492      0.8343
  2237.3844      9.8268    579.1857      2.8544  31826.4434   2383.0137     80.2714      0.3293  31684.7422      1.8525      0.8225      2.5521      0.8344
  2237.5368      9.8024    575.2457      3.0651  31824.7480   2383.1985     80.2752      0.3275  31698.9707      1.8518      0.8186      2.5410      0.8364
  2237.6892      9.7963    577.2158      3.6399  31817.6270   2383.3713     80.2821      0.3301  31678.3984      1.8512      0.8296      2.5501      0.8372
