~Version Information
VERS.                            2.0: CWLS Log ASCII STANDARD - VERSION 2.0
WRAP.                             NO: One line per depth step
~Well Information
STRT.M                     2229.9168: START DEPTH
STOP.M                     2385.0600: STOP DEPTH
STEP.M                        0.1524: STEP
NULL.                      -999.2500: NULL VALUE
COMP.                               : COMPANY
WELL.                               : WELL
FLD.                                : FIELD
LOC.                                : LOCATION
DATE.                Wed Sep 11 12-22-31 2024: LOG DATE
SECT.                               : SECTION
TOWN.                               : TOWNSHIP
RANG.                               : RANGE
OS.                                 : OTHER SERVICES
PDAT.FT                             : PERMANENT DATUM
EEL.FT                              : ELEVATION
LMF.FT                              : LOG MEASURED FROM
DMF.FT                              : DRILLING MEASURED FROM
EKB.FT                              : KB
EDF.FT                              : DF
EGL.FT                              : GL
DATE1.                              : DATE1
RUN1.                               : RUN NUMBER
TDD1.FT                             : DEPTH DRILLER
TDL1.FT                             : DEPTH LOGGER
BLI1.FT                             : BOTTOM LOGGED INTERVAL
TLI1.FT                             : TOP LOG INTERVAL
CDD1.IN_FT                          : CASING DRILLER
CDL1.FT                             : CASING LOGGER
BS1.IN                              : BIT SIZE
DFT1.                               : TYPE FLUID IN HOLE
DFDV1.GM/C3_CP                      : DENSITY/VISCOSITY
DFPL1.C3                            : PH/FLUID LOSS
MSS1.                               : SOURCE OF SAMPLE
RMT1.OHHM_DEGF                      : RM@MEASURED TEMP
RMFT1.OHMM_DEGF                     : RMF@MEASURED TEMP
RMCT1.OHMM_DEGF                     : RMC@MEASURED TEMP
RMFS1.                              : SOURCE OF RMF/RMC
RMBT1.OHMM_DEGF                     : RM@BHT
TCS1.                               : TIME CIRCULATION STOPPED
TLOB1.                              : TIME LOGGER ON BOTTOM
BHT1.DEGF                           : MAXIMUM RECORDED TEMPERATURE
LUN1.                               : EQUIPMENT NUMBER
LUL1.                               : LOCATION
ENGI1.                              : RECORDED BY
WITN1.                              : WITNESSED BY
COMW.                               : Common Well Name
~Curve Information
DEPT.M                   0 000 00 00: Depth
LSPD.M/MIN                         0: Line Speed
LTEN.LB                            0: Surface Line Tension
GR.GAPI                            0: Gamma Ray
CCL.                               0: Casing Collar Locator
QP.PSI                             0: Quartz Pressure
TEMP.DEGC                          0: Downhole Temperature
CWH.                               0: Capacitance Water Holdup
CWHC.CPS                           0: CWH Counts
ILS.RPS                            0: Flowmeter
QPSG.                              0: Specific Gravity from QP
CFS.RPS                            0: Flowmeter
FDIDEN.G/CC                        0: FDI Fluid Density
~Parameter Information
~A  Depth       LSPD        LTEN         GR         CCL          QP         TEMP        CWH         CWHC        ILS         QPSG        CFS        FDIDEN   
# ...
  2301.2400      9.8328    596.9159     93.7505  31792.5352   2456.8540     80.5491      0.3191  31765.1367      0.0000      0.8135      2.1167      0.8423
  2301.3924     10.0096    593.9609     72.4954  31778.9707   2457.0334     80.5458      0.3203  31755.4141      0.0000      0.8099      2.0777      0.8431
  2301.5448      9.9090    598.8859     51.8905  31817.2676   2457.2126     80.5526      0.3204  31754.7129      0.0000      0.8062      2.0159      0.8432
  2301.6972      9.8725    595.9308     40.0105  31823.1992   2457.3840     80.5426      0.3208  31751.5977      0.0000      0.8076      2.0279      0.8430
  2301.8496      9.8877    591.0059     38.6850  31838.8105   2457.5530     80.5491      0.3204  31754.4043      0.0000      0.7958      2.0370      0.8428
  2302.0020      9.8877    593.9609     45.8046  31855.0449   2457.7336     80.5426      0.3216  31744.9395      0.0000      0.8037      2.0995      0.8424
  2302.1544      9.9395    595.9308     57.9787  31774.1836   2457.9026     80.5419      0.3222  31740.4219      0.0000      0.8237      2.1768      0.8426
  2302.3068      9.9030    592.9758     73.0860  31819.6621   2458.0808     80.5419      0.3259  31711.6484      0.0000      0.8138      2.2545      0.8438
  2302.4592      9.8938    593.9609     90.5234  31860.3516   2458.2671     80.5490      0.3235  31730.2773      0.0000      0.8197      2.3506      0.8442
  2302.6116     10.0157    595.9308    106.8390  31852.7227   2458.4392     80.5491      0.3228  31735.9785      0.0000      0.8104      2.4639      0.8444
  2302.7640      9.9334    595.9308    114.3300  31812.5840   2458.6133     80.5628      0.3201  31756.9023      0.0000      0.8087      2.5311      0.8438
  2302.9164      9.8725    592.9758    108.8864  31840.0059   2458.7834     80.5636      0.3187  31768.2637      0.0000      0.8101      2.5597      0.8425
  2303.0688      9.9090    590.0208     96.4828  31852.2129   2458.9683     80.5625      0.3160  31789.3281      0.0000      0.8093      2.5932      0.8424
  2303.2212      9.9030    593.9609     87.3726  31860.3516   2459.1416     80.5628      0.3185  31769.3164      0.0013      0.8166      2.6664      0.8429
  2303.3736      9.8938    592.9758     85.8090  31860.3516   2459.3149     80.5628      0.3200  31757.4297      0.1789      0.8090      2.5789      0.8427
  2303.5260      9.9700    594.9459     90.2999  31847.5020   2459.4915     80.5686      0.3214  31746.5566      0.3247      0.8192      2.4150      0.8431
  2303.6784      9.9792    593.9609    107.1029  31831.6289   2459.6697     80.5697      0.3199  31758.2109      0.3766      0.8141      2.2926      0.8438
  2303.8308      9.9792    591.0059    160.8043  31924.0410   2459.8518     80.5697      0.3192  31763.9805      0.3766      0.9926      2.2187      0.8432
  2303.9832      9.9030    599.8709    280.4190  31860.3516   2460.0208     80.5757      0.3207  31752.6426      0.3766      0.8107      2.3534      0.8423
  2304.1356      9.8024    598.8859    460.3183  31833.8145   2460.3521     80.5691      0.3245  31722.7441      0.3766      0.9439      2.4538      0.8413
  2304.2880      9.8786    591.9908    636.2895  31841.0781   2460.3726     80.5710      0.3304  31676.1758      0.3766      0.8189      2.6004      0.8426
  2304.4404      9.9548    596.9159    724.4821  31807.2773   2460.6702     80.5423      0.3184  31770.4043      0.3766      0.6361      2.6816      0.8449
  2304.5928      9.9030    596.9159    691.5376  31833.8145   2460.7307     80.5765      0.3388  31610.2070      0.3766      0.8186      2.7172      0.8441
  2304.7452     10.0614    592.9758    569.8253  31795.2480   2460.9036     80.5890      0.3079  31852.8770      0.3766      0.6758      2.6811      0.8435
  2304.8976      9.9700    595.9308    414.3091  31801.9707   2461.0823     80.6271      0.3061  31866.7754      0.3766      0.8172      2.4529      0.8434
  2305.0500      9.8481    591.9908    268.3853  31787.1094   2461.2561     80.6519      0.3114  31824.8398      0.3766      0.8172      2.5382      0.8425
  2305.2024      9.8268    591.9908    157.7555  31780.7402   2461.4392     80.6656      0.3033  31888.1914      0.3753      0.8189      2.2072      0.8421
  2305.3548      9.8938    595.9308     90.0419  31838.8105   2461.6121     80.6712      0.3031  31890.3691      0.1977      0.8544      2.1655      0.8432
  2305.5072      9.9090    592.9758     57.7079  31637.7520   2461.7922     80.6793      0.3035  31886.9844      0.0528      0.8065      2.1949      0.8436
  2305.6596      9.9090    596.9159     48.2913  31874.7129   2461.9968     80.6814      0.3051  31874.8340      0.1143      0.8177      2.2101      0.8428
  2305.8120      9.9090    594.9459     53.8197  31844.0762   2462.1384     80.6793      0.3103  31833.7188      0.1143      0.8059      2.0570      0.8433
  2305.9644     10.0462    591.0059     75.9313  31847.5020   2462.3210     80.6773      0.3047  31877.4844      0.1653      0.7676      1.9437      0.8435
  2306.1168      9.8938    598.8859    128.1595  31811.5234   2462.4910     80.6929      0.3045  31879.5000      0.2466      1.8267      2.1316      0.8432
  2306.2692      9.8268    591.9908    226.9702  31801.7578   2462.6624     80.6948      0.3053  31873.2012      0.3207      0.8121      2.1196      0.8441
  2306.4216      9.8420    595.9308    367.0088  31866.7754   2463.7222     80.7035      0.3055  31871.4492      0.3975      1.2100      2.2882      0.8444
  2306.5740      9.9182    597.9009    506.4586  31839.1211   2463.0251     80.7080      0.3055  31871.4492      0.4762      0.8225      2.1487      0.8439
  2306.7264      9.9182    592.9758    591.5938  31796.1035   2463.5400     80.6793      0.3072  31858.2832      0.5521     -0.1994      2.3162      0.8450
  2306.8788      9.9182    596.9159    597.3710  31845.0938   2463.3755     80.7203      0.3087  31845.9902      0.6253      0.8042      2.3194      0.8463
  2307.0312     10.0401    592.9758    536.2902  31828.5078   2463.5493     80.7548      0.3058  31868.6270      0.7005      0.4159      2.2301      0.8457
  2307.1836      9.9090    591.9908    436.8676  31829.8340   2463.7224     80.8045      0.3046  31878.1074      0.7756      0.8025      1.9201      0.8448
  2307.3360      9.8877    595.9308    327.4071  31771.5723   2463.9006     80.8367      0.3048  31876.9043      0.8510      0.8054      1.8561      0.8436
  2307.4884      9.9090    594.9459    231.1441  31852.2129   2464.0713     80.8549      0.3048  31876.9043      0.9244      0.8039      1.6985      0.8445
  2307.6408      9.9182    596.9159    159.6584  31815.3789   2464.2476     80.8684      0.3047  31877.4844      0.8864      0.8042      1.5922      0.8453
  2307.7932      9.9182    597.9009    110.2565  31834.6523   2464.4194     80.8702      0.3043  31880.3633      0.9617      0.7989      1.5869      0.8448
  2307.9456      9.8877    592.9758     74.3030  31901.0410   2464.5979     80.8755      0.3042  31881.7676      0.9847      0.7927      1.6116      0.8441
  2308.0980      9.9548    592.9758     46.6746  31828.2285   2464.7639     80.8729      0.3045  31878.9727      0.9755      0.8006      1.6052      0.8441
  2308.2504     10.0462    592.9758     27.0670  31860.3516   2464.9348     80.8778      0.3044  31879.6250      0.9727      0.7859      1.5855      0.8443
  2308.4028      9.8938    592.9758     15.8084  31786.0488   2465.1135     80.8800      0.3047  31877.4844      0.9705      0.7811      1.5835      0.8440
  2308.5552      9.9030    598.8859     11.1768  31874.7129   2465.2793     80.8847      0.3051  31874.7129      0.9640      0.7704      1.5783      0.8443
  2308.7076      9.9548    594.9459     10.4188  31844.4297   2465.4412     80.8800      0.3055  31871.4492      0.9630      0.8048      1.5409      0.8446
  2308.8600      9.9182    596.9159     11.4772  31819.6621   2465.6028     80.8855      0.3056  31870.6973      0.9625      0.8194      1.5044      0.8445
  2309.0124      9.8481    597.9009     13.1984  31814.5742   2465.8113     80.8826      0.3064  31864.4902      0.9618      0.8189      1.4821      0.8443
