~Version Information
VERS.                            2.0: CWLS Log ASCII STANDARD - VERSION 2.0
WRAP.                             NO: One line per depth step
~Well Information
STRT.M                     2229.9168: START DEPTH
STOP.M                     2385.0600: STOP DEPTH
STEP.M                        0.1524: STEP
NULL.                      -999.2500: NULL VALUE
COMP.                               : COMPANY
WELL.                               : WELL
FLD.                                : FIELD
LOC.                                : LOCATION
DATE.                Wed Sep 11 12-22-31 2024: LOG DATE
SECT.                               : SECTION
TOWN.                               : TOWNSHIP
RANG.                               : RANGE
OS.                                 : OTHER SERVICES
PDAT.FT                             : PERMANENT DATUM
EEL.FT                              : ELEVATION
LMF.FT                              : LOG MEASURED FROM
DMF.FT                              : DRILLING MEASURED FROM
EKB.FT                              : KB
EDF.FT                              : DF
EGL.FT                              : GL
DATE1.                              : DATE1
RUN1.                               : RUN NUMBER
TDD1.FT                             : DEPTH DRILLER
TDL1.FT                             : DEPTH LOGGER
BLI1.FT                             : BOTTOM LOGGED INTERVAL
TLI1.FT                             : TOP LOG INTERVAL
CDD1.IN_FT                          : CASING DRILLER
CDL1.FT                             : CASING LOGGER
BS1.IN                              : BIT SIZE
DFT1.                               : TYPE FLUID IN HOLE
DFDV1.GM/C3_CP                      : DENSITY/VISCOSITY
DFPL1.C3                            : PH/FLUID LOSS
MSS1.                               : SOURCE OF SAMPLE
RMT1.OHHM_DEGF                      : RM@MEASURED TEMP
RMFT1.OHMM_DEGF                     : RMF@MEASURED TEMP
RMCT1.OHMM_DEGF                     : RMC@MEASURED TEMP
RMFS1.                              : SOURCE OF RMF/RMC
RMBT1.OHMM_DEGF                     : RM@BHT
TCS1.                               : TIME CIRCULATION STOPPED
TLOB1.                              : TIME LOGGER ON BOTTOM
BHT1.DEGF                           : MAXIMUM RECORDED TEMPERATURE
LUN1.                               : EQUIPMENT NUMBER
LUL1.                               : LOCATION
ENGI1.                              : RECORDED BY
WITN1.                              : WITNESSED BY
COMW.                               : Common Well Name
~Curve Information
DEPT.M                   0 000 00 00: Depth
LSPD.M/MIN                         0: Line Speed
LTEN.LB                            0: Surface Line Tension
GR.GAPI                            0: Gamma Ray
CCL.                               0: Casing Collar Locator
QP.PSI                             0: Quartz Pressure
TEMP.DEGC                          0: Downhole Temperature
CWH.                               0: Capacitance Water Holdup
CWHC.CPS                           0: CWH Counts
ILS.RPS                            0: Flowmeter
QPSG.                              0: Specific Gravity from QP
CFS.RPS                            0: Flowmeter
FDIDEN.G/CC                        0: FDI Fluid Density
~Parameter Information
~A  Depth       LSPD        LTEN         GR         CCL          QP         TEMP        CWH         CWHC        ILS         QPSG        CFS        FDIDEN   
# ...
  2372.5632     10.0706    607.7510     34.8358  31801.9707   2556.0156     81.9745      1.0733  25857.4902      0.4819      1.1072      0.5817      1.1441
  2372.7156     10.0706    608.7360     32.2532  31845.0938   2556.2510     81.9782      1.0734  25856.7109      0.4780      1.1089      0.5809      1.1451
  2372.8680     10.0614    601.8409     29.0442  31828.2285   2556.5024     81.9799      1.0733  25857.4902      0.4825      1.1072      0.5650      1.1457
  2373.0204     10.0157    614.6460     25.8007  31745.9102   2556.7410     81.9826      1.0735  25855.3496      0.4794      1.1224      0.5524      1.1465
  2373.1728      9.9700    607.7510     22.7953  31868.4902   2556.9756     81.9850      1.0732  25858.2168      0.4849      1.1024      0.5508      1.1470
  2373.3252     10.0401    604.7959     20.3547  31783.2539   2557.2241     81.9940      1.0734  25856.7109      0.4742      1.1053      0.5540      1.1474
  2373.4776     10.0310    608.7360     18.7615  31778.9707   2557.4583     81.9940      1.0733  25857.4902      0.4764      1.1182      0.5529      1.1475
  2373.6300      9.9852    607.7510     17.7540  31806.0977   2557.6992     82.0009      1.0730  25859.7578      0.4778      1.0915      0.5597      1.1466
  2373.7824     10.1224    606.7659     16.6512  31906.1289   2557.9451     82.0047      1.0733  25857.4902      0.4743      1.1064      0.5745      1.1469
  2373.9348     10.0401    609.7209     15.3509  31831.2871   2558.1704     82.0039      1.0730  25859.7578      0.4706      1.1129      0.5969      1.1482
  2374.0872      9.9487    604.7959     14.6774  31806.9453   2558.4175     82.0113      1.0730  25859.6328      0.4694      1.0926      0.6098      1.1484
  2374.2396     10.0401    609.7209     15.1969  31873.2012   2558.6641     82.0180      1.0733  25857.3652      0.4741      1.1157      0.6043      1.1476
  2374.3920     10.0401    606.7659     16.2422  31880.6973   2558.8923     82.0214      1.0733  25857.4902      0.4650      1.1168      0.6008      1.1433
  2374.5444     10.0005    605.7809     16.8279  31754.2031   2559.1377     82.0302      1.0733  25856.8945      0.4666      1.1199      0.6014      1.1318
  2374.6968      9.9700    606.7659     16.9546  31724.7188   2559.3857     82.0283      1.0735  25855.3496      0.4633      1.1244      0.6019      1.1218
  2374.8492     10.0401    606.7659     17.1497  31837.0996   2559.6350     82.0335      1.0734  25856.1465      0.4621      1.1123      0.6013      1.1212
  2375.0016     10.0310    619.5710     17.3182  31840.0059   2559.8672     82.0393      1.0738  25853.2070      0.4646      1.1100      0.5990      1.1289
  2375.1540      9.9792    606.7659     16.9191  31821.8027   2560.1021     82.0439      1.0740  25852.0098      0.4576      1.1193      0.6009      1.1328
  2375.3064      9.9090    602.8259     15.9014  31799.3164   2560.3481     82.0488      1.0741  25851.2676      0.4660      1.1252      0.6032      1.1323
  2375.4588     10.0554    608.7360     14.8216  31837.4629   2560.6055     82.0557      1.0741  25851.0664      0.4598      1.1300      0.5991      1.1470
  2375.6112     10.0310    610.7060     14.1874  31806.9453   2560.8428     82.0557      1.0744  25848.9648      0.4650      1.1286      0.5991      1.1555
  2375.7636     10.0005    608.7360     14.1283  31806.0977   2561.0818     82.0576      1.0746  25846.7832      0.4654      1.1123      0.6103      1.1554
  2375.9160     10.1529    611.6910     14.5695  31716.0859   2561.3267     82.0660      1.0747  25846.6621      0.4596      1.1216      0.6173      1.1547
  2376.0684     10.0096    608.7360     15.2834  31829.8340   2561.5698     82.0709      1.0746  25846.7832      0.4636      1.1140      0.6082      1.1620
  2376.2208     10.0096    618.5860     15.8291  31832.6074   2561.8152     82.0794      1.0751  25843.3945      0.4666      1.1252      0.6066      1.1696
  2376.3732      9.9487    608.7360     15.8480  31806.0977   2562.0476     82.0762      1.0751  25843.3945      0.4710      1.1374      0.6121      1.1696
  2376.5256     10.0462    603.8109     15.4322  31837.4629   2562.3022     82.0819      1.0753  25841.6641      0.4638      1.1241      0.6067      1.1654
  2376.6780      9.9792    608.7360     14.8583  31845.0938   2562.5559     82.0907      1.0754  25840.6094      0.4677      1.1362      0.5941      1.1622
  2376.8304     10.0096    612.6760     14.1870  31814.5742   2562.7898     82.0907      1.0754  25841.1758      0.4678      1.1221      0.6000      1.1579
  2376.9828     10.0005    607.7510     13.4820  31819.6621   2563.0327     82.0967      1.0753  25841.5371      0.4608      1.1185      0.5996      1.1580
  2377.1352     10.0554    606.7659     12.9775  31822.2051   2563.2751     82.0967      1.0755  25840.3574      0.4618      1.1207      0.5994      1.1659
  2377.2876     10.0554    609.7209     12.8044  31829.8340   2563.5256     82.1036      1.0754  25840.6094      0.4560      1.1140      0.5999      1.1680
  2377.4400      9.9334    610.7060     12.8431  32069.6152   2563.7615     82.1106      1.0756  25838.9551      0.4618      1.1219      0.5982      1.1674
  2377.5924     10.1681    609.7209     12.8247  31506.3477   2563.9985     82.1173      1.0757  25838.2168      0.4533      1.1185      0.5957      1.1686
  2377.7448     10.0554    601.8409     12.6244  31814.5742   2564.2478     82.1173      1.0757  25838.2168      0.4511      1.1221      0.6029      1.1698
  2377.8972     10.0554    608.7360     12.3889  31812.8789   2564.4954     82.1245      1.0758  25837.4492      0.4594      1.1441      0.5984      1.1703
  2378.0496      9.9852    610.7060     12.1496  31852.7227   2564.7344     82.1310      1.0759  25836.7363      0.4544      1.1351      0.5919      1.1698
  2378.2020     10.1468    603.8109     11.7573  31845.0938   2564.9905     82.1330      1.0758  25837.5273      0.4549      1.1354      0.5950      1.1697
  2378.3544     10.0096    607.7510     11.3668  31853.5703   2565.2319     82.1387      1.0760  25836.0742      0.4515      1.1438      0.6060      1.1713
  2378.5068      9.9944    605.7809     11.2968  31768.7988   2565.4797     82.1483      1.0761  25835.4570      0.4562      1.1236      0.6076      1.1714
  2378.6592     10.0310    604.7959     11.5310  31768.7988   2565.7261     82.1529      1.0760  25836.0742      0.4573      1.1289      0.5882      1.1702
  2378.8116     10.0706    610.7060     12.0046  31723.0234   2565.9646     82.1600      1.0761  25835.4570      0.4596      1.1236      0.5939      1.1675
  2378.9640     10.0096    607.7510     12.8335  31860.3516   2566.2107     82.1652      1.0759  25836.6504      0.4646      1.1312      0.6047      1.1648
  2379.1164      9.9548    614.6460     13.7551  31860.3516   2566.4539     82.1635      1.0762  25834.7090      0.4625      1.1216      0.6005      1.1643
  2379.2688     10.1376    611.6910     14.2063  31860.3516   2566.7068     82.1721      1.0760  25835.8223      0.4711      1.1416      0.5885      1.1652
  2379.4212     10.0462    604.7959     14.2576  31829.8340   2566.9370     82.1767      1.0759  25836.7363      0.4689      1.1399      0.5950      1.1664
  2379.5736      9.9487    609.7209     14.5736  31815.9629   2567.2004     82.1866      1.0759  25836.7363      0.4711      1.1404      0.6105      1.1668
  2379.7260      9.9487    606.7659     15.2552  31860.3516   2567.4421     82.1926      1.0761  25835.4570      0.4727      1.1469      0.5994      1.1670
  2379.8784     10.1011    608.7360     15.6252  31792.5352   2567.6956     82.1986      1.0760  25836.0742      0.4737      1.1185      0.5862      1.1667
  2380.0308      9.9243    612.6760     15.3306  31829.8340   2567.9314     82.1995      1.0758  25837.4492      0.4764      1.1385      0.5982      1.1664
  2380.1832      9.9090    609.7209     14.7394  31808.0352   2568.1702     82.2032      1.0760  25836.0742      0.4633      1.1213      0.6106      1.1669
  2380.3356      9.9700    610.7060     14.2260  31817.2676   2568.4292     82.2131      1.0756  25839.0469      0.4697      1.1300      0.6042      1.1674
