~Version Information
VERS.                            2.0: CWLS Log ASCII STANDARD - VERSION 2.0
WRAP.                             NO: One line per depth step
~Well Information
STRT.M                        3.6576: START DEPTH
STOP.M                     2390.0892: STOP DEPTH
STEP.M                        0.1524: STEP
NULL.                      -999.2500: NULL VALUE
COMP.                               : COMPANY
WELL.                               : WELL
FLD.                                : FIELD
LOC.                                : LOCATION
DATE.                Wed Sep 11 08-05-24 2024: LOG DATE
SECT.                               : SECTION
TOWN.                               : TOWNSHIP
RANG.                               : RANGE
OS.                                 : OTHER SERVICES
PDAT.FT                             : PERMANENT DATUM
EEL.FT                              : ELEVATION
LMF.FT                              : LOG MEASURED FROM
DMF.FT                              : DRILLING MEASURED FROM
EKB.FT                              : KB
EDF.FT                              : DF
EGL.FT                              : GL
DATE1.                              : DATE1
RUN1.                               : RUN NUMBER
TDD1.FT                             : DEPTH DRILLER
TDL1.FT                             : DEPTH LOGGER
BLI1.FT                             : BOTTOM LOGGED INTERVAL
TLI1.FT                             : TOP LOG INTERVAL
CDD1.IN_FT                          : CASING DRILLER
CDL1.FT                             : CASING LOGGER
BS1.IN                              : BIT SIZE
DFT1.                               : TYPE FLUID IN HOLE
DFDV1.GM/C3_CP                      : DENSITY/VISCOSITY
DFPL1.C3                            : PH/FLUID LOSS
MSS1.                               : SOURCE OF SAMPLE
RMT1.OHHM_DEGF                      : RM@MEASURED TEMP
RMFT1.OHMM_DEGF                     : RMF@MEASURED TEMP
RMCT1.OHMM_DEGF                     : RMC@MEASURED TEMP
RMFS1.                              : SOURCE OF RMF/RMC
RMBT1.OHMM_DEGF                     : RM@BHT
TCS1.                               : TIME CIRCULATION STOPPED
TLOB1.                              : TIME LOGGER ON BOTTOM
BHT1.DEGF                           : MAXIMUM RECORDED TEMPERATURE
LUN1.                               : EQUIPMENT NUMBER
LUL1.                               : LOCATION
ENGI1.                              : RECORDED BY
WITN1.                              : WITNESSED BY
COMW.                               : Common Well Name
~Curve Information
DEPT.M                   0 000 00 00: Depth
LSPD.M/MIN                         0: Line Speed
LTEN.LB                            0: Surface Line Tension
GR.GAPI                            0: Gamma Ray
CCL.                               0: Casing Collar Locator
QP.PSI                             0: Quartz Pressure
TEMP.DEGC                          0: Downhole Temperature
CWH.                               0: Capacitance Water Holdup
CWHC.CPS                           0: CWH Counts
ILS.RPS                            0: Flowmeter
QPSG.                              0: Specific Gravity from QP
CFS.RPS                            0: Flowmeter
FDIDEN.G/CC                        0: FDI Fluid Density
~Parameter Information
~A  Depth       LSPD        LTEN         GR         CCL          QP         TEMP        CWH         CWHC        ILS         QPSG        CFS        FDIDEN   
# ...
  1905.6096     55.9643    364.4543     14.8151  31707.7637   1898.8865     79.2176      0.3240  31726.0742     10.0571      0.7526     14.9960      0.7648
  1905.7620     55.9643    364.4543     14.9704  31738.2813   1899.0548     79.1919      0.3244  31723.0234     10.0372      0.7624     15.0423      0.7581
  1905.9144     55.9643    367.4093     15.0941  31951.9043   1899.2437     79.1919      0.3225  31738.2813     10.0425      0.7734     15.0105      0.7554
  1906.0668     55.4858    367.4093     15.2568  31677.2461   1899.4048     79.1919      0.3225  31738.2813     10.0335      0.8467     15.0390      0.7567
  1906.2192     55.4858    367.4093     16.2062  31860.3516   1899.5570     79.1919      0.3240  31726.0742     10.0358      0.8291     15.0402      0.7632
  1906.3716     55.4858    365.4393     17.8589  31677.2461   1899.7889     79.1919      0.3240  31726.0742     10.0420      0.7675     15.0585      0.7659
  1906.5240     55.4858    365.4393     19.3027  31860.3516   1899.9625     79.1919      0.3225  31738.2813     10.0497      0.8115     14.9915      0.7629
  1906.6764     55.4858    365.4393     19.8924  31799.3164   1900.0702     79.2305      0.3235  31730.6523     10.0313      0.7509     15.0301      0.7635
  1906.8288     55.4858    366.4243     19.9232  31555.1758   1900.2606     79.1919      0.3225  31738.2813     10.0667      0.7227     15.0084      0.7623
  1906.9812     55.4858    366.4243     20.2685  31616.2109   1900.4399     79.1919      0.3225  31738.2813     10.0710      0.7557     14.9736      0.7623
  1907.1336     56.2996    366.4243     21.2700  31890.8691   1900.5891     79.1919      0.3225  31738.2813     10.1467      0.7206     14.9957      0.7622
  1907.2860     56.2996    367.4093     22.5460  32043.4570   1900.7253     79.1919      0.3247  31720.8418     10.1132      0.8099     15.0026      0.7621
  1907.4384     56.2996    365.4393     23.8565  31982.4219   1900.8854     79.1919      0.3244  31723.0234     10.1287      0.7802     14.9820      0.7623
  1907.5908     56.2996    365.4393     24.9192  32043.4570   1901.1421     79.2305      0.3244  31723.0234     10.0929      0.8494     15.0068      0.7617
  1907.7432     56.2996    367.4093     25.2559  31636.5566   1901.2655     79.1919      0.3240  31726.0742     10.1609      0.8781     14.9542      0.7628
  1907.8956     56.2996    367.4093     25.2670  31494.1406   1901.4618     79.1919      0.3225  31738.2813     10.2002      0.7365     14.9170      0.7609
  1908.0480     55.8363    367.4093     25.5079  31921.3867   1901.6467     79.2305      0.3225  31738.2813     10.1523      0.7970     14.8752      0.7615
  1908.2004     55.8363    367.4093     25.0027  31738.2813   1901.7806     79.1919      0.3240  31726.0742     10.2538      0.8006     14.9305      0.7615
  1908.3528     55.8363    366.4243     22.6240  31860.3516   1901.9565     79.1919      0.3235  31730.6523     10.2025      0.8004     14.9512      0.7612
  1908.5052     55.8363    366.4243     19.3060  31656.9004   1902.1559     79.2402      0.3209  31750.4883     10.2243      0.8134     14.9173      0.7640
  1908.6576     55.8363    365.4393     17.1394  31921.3867   1902.3407     79.1919      0.3203  31755.7207     10.2425      0.7930     14.9493      0.7618
  1908.8100     55.8363    364.4543     17.5162  31982.4219   1902.4858     79.2160      0.3225  31738.2813     10.1942      0.8138     14.9299      0.7629
  1908.9624     55.5925    364.4543     20.4645  31616.2109   1902.6440     79.1919      0.3225  31738.2813     10.2309      0.8134     14.9448      0.7646
  1909.1148     55.5925    364.4543     24.0362  31738.2813   1902.8615     79.1919      0.3225  31738.2813     10.2464      0.7925     14.9184      0.7623
  1909.2672     55.5925    364.4543     25.3985  31951.9043   1903.0459     79.1919      0.3240  31726.0742     10.2717      0.8603     14.9296      0.7598
  1909.4196     55.5925    364.4543     24.0520  31758.6270   1903.1730     79.1919      0.3240  31726.0742     10.2329      0.7871     14.9006      0.7579
  1909.5720     55.5925    365.4393     21.8613  31646.7285   1903.3899     79.1919      0.3244  31723.0234     10.2496      0.7627     14.9481      0.7552
  1909.7244     55.5925    365.4393     19.8699  32409.6680   1903.5438     79.1919      0.3244  31723.0234     10.2184      0.8011     14.9973      0.7576
  1909.8768     56.4672    366.4243     17.8338  31982.4219   1903.7072     79.1919      0.3240  31726.0742     10.2720      0.7893     14.9901      0.7587
  1910.0292     56.4672    366.4243     15.9149  31616.2109   1903.8676     79.1919      0.3214  31747.0000     10.3049      0.8108     15.0341      0.7595
  1910.1816     56.4672    366.4243     14.6115  32043.4570   1904.0742     79.1919      0.3225  31738.2813     10.1535      0.8082     15.0831      0.7587
  1910.3340     56.4672    366.4243     14.0458  31829.8340   1904.2468     79.2305      0.3225  31738.2813     10.1773      0.8438     15.0916      0.7574
  1910.4864     56.4672    365.4393     13.8799  31524.6582   1904.4078     79.2195      0.3225  31738.2813     10.2740      0.8196     15.1370      0.7602
  1910.6388     56.4672    365.4393     13.5324  31860.3516   1904.5991     79.1919      0.3225  31738.2813     10.3263      0.8324     15.1399      0.7590
  1910.7912     56.2326    366.4243     13.2034  31982.4219   1904.7848     79.1919      0.3225  31738.2813     10.3340      0.8308     15.0697      0.7625
  1910.9436     56.2326    364.4543     13.8227  31982.4219   1904.9685     79.2305      0.3225  31738.2813     10.3072      0.8291     15.0778      0.7625
  1911.0960     56.2326    364.4543     15.1784  31799.3164   1905.1282     79.2146      0.3225  31738.2813     10.2717      0.8123     15.0531      0.7540
  1911.2484     56.2326    365.4393     15.9106  31860.3516   1905.3180     79.1919      0.3205  31753.5391     10.3157      0.7863     15.0468      0.7524
  1911.4008     56.2326    365.4393     15.3522  31799.3164   1905.4890     79.1919      0.3205  31753.5391     10.3303      0.7956     15.0014      0.7524
  1911.5532     56.2326    365.4393     13.8039  31738.2813   1905.6503     79.1919      0.3215  31745.9102     10.2728      0.7983     15.0351      0.7544
  1911.7056     55.6687    367.4093     11.8378  31646.7285   1905.8180     79.1919      0.3225  31738.2813     10.2809      0.8123     15.0211      0.7555
  1911.8580     55.6687    367.4093     10.2785  31860.3516   1906.0101     79.2305      0.3225  31738.2813     10.2443      0.7862     15.1039      0.7534
  1912.0104     55.6687    367.4093      9.8018  31890.8691   1906.1932     79.1919      0.3209  31750.4883     10.2000      0.8146     15.1326      0.7570
  1912.1628     55.6687    367.4093     10.1739  31707.7637   1906.3319     79.1919      0.3235  31730.6523     10.2850      0.8314     15.1298      0.7582
  1912.3152     55.6687    367.4093     10.7961  31555.1758   1906.5243     79.2402      0.3225  31738.2813     10.2782      0.7927     15.1191      0.7568
  1912.4676     55.6687    366.4243     11.5003  31860.3516   1906.7310     79.2305      0.3247  31720.8418     10.1300      0.7972     15.1336      0.7586
  1912.6200     55.6595    365.4393     12.0743  31860.3516   1906.8805     79.2195      0.3209  31750.4883     10.1250      0.8097     15.0925      0.7594
  1912.7724     55.6595    365.4393     12.2850  31555.1758   1907.0231     79.2348      0.3212  31748.4531     10.0996      0.7350     15.0920      0.7577
  1912.9248     55.6595    365.4393     12.7990  31921.3867   1907.2263     79.2402      0.3225  31738.2813     10.0592      0.7699     15.1066      0.7630
  1913.0772     55.6595    365.4393     14.4647  31738.2813   1907.3682     79.2305      0.3225  31738.2813     10.1300      0.7921     15.0718      0.7703
  1913.2296     55.6595    365.4393     16.4857  31494.1406   1907.5480     79.2692      0.3225  31738.2813     10.0617      0.7852     15.0148      0.7652
  1913.3820     55.6595    365.4393     16.8485  31860.3516   1907.7098     79.1919      0.3225  31738.2813     10.0791      0.7671     15.0008      0.7642
