~Version Information
VERS.                            2.0: CWLS Log ASCII STANDARD - VERSION 2.0
WRAP.                             NO: One line per depth step
~Well Information
STRT.M                        3.6576: START DEPTH
STOP.M                     2390.0892: STOP DEPTH
STEP.M                        0.1524: STEP
NULL.                      -999.2500: NULL VALUE
COMP.                               : COMPANY
WELL.                               : WELL
FLD.                                : FIELD
LOC.                                : LOCATION
DATE.                Wed Sep 11 08-05-24 2024: LOG DATE
SECT.                               : SECTION
TOWN.                               : TOWNSHIP
RANG.                               : RANGE
OS.                                 : OTHER SERVICES
PDAT.FT                             : PERMANENT DATUM
EEL.FT                              : ELEVATION
LMF.FT                              : LOG MEASURED FROM
DMF.FT                              : DRILLING MEASURED FROM
EKB.FT                              : KB
EDF.FT                              : DF
EGL.FT                              : GL
DATE1.                              : DATE1
RUN1.                               : RUN NUMBER
TDD1.FT                             : DEPTH DRILLER
TDL1.FT                             : DEPTH LOGGER
BLI1.FT                             : BOTTOM LOGGED INTERVAL
TLI1.FT                             : TOP LOG INTERVAL
CDD1.IN_FT                          : CASING DRILLER
CDL1.FT                             : CASING LOGGER
BS1.IN                              : BIT SIZE
DFT1.                               : TYPE FLUID IN HOLE
DFDV1.GM/C3_CP                      : DENSITY/VISCOSITY
DFPL1.C3                            : PH/FLUID LOSS
MSS1.                               : SOURCE OF SAMPLE
RMT1.OHHM_DEGF                      : RM@MEASURED TEMP
RMFT1.OHMM_DEGF                     : RMF@MEASURED TEMP
RMCT1.OHMM_DEGF                     : RMC@MEASURED TEMP
RMFS1.                              : SOURCE OF RMF/RMC
RMBT1.OHMM_DEGF                     : RM@BHT
TCS1.                               : TIME CIRCULATION STOPPED
TLOB1.                              : TIME LOGGER ON BOTTOM
BHT1.DEGF                           : MAXIMUM RECORDED TEMPERATURE
LUN1.                               : EQUIPMENT NUMBER
LUL1.                               : LOCATION
ENGI1.                              : RECORDED BY
WITN1.                              : WITNESSED BY
COMW.                               : Common Well Name
~Curve Information
DEPT.M                   0 000 00 00: Depth
LSPD.M/MIN                         0: Line Speed
LTEN.LB                            0: Surface Line Tension
GR.GAPI                            0: Gamma Ray
CCL.                               0: Casing Collar Locator
QP.PSI                             0: Quartz Pressure
TEMP.DEGC                          0: Downhole Temperature
CWH.                               0: Capacitance Water Holdup
CWHC.CPS                           0: CWH Counts
ILS.RPS                            0: Flowmeter
QPSG.                              0: Specific Gravity from QP
CFS.RPS                            0: Flowmeter
FDIDEN.G/CC                        0: FDI Fluid Density
~Parameter Information
~A  Depth       LSPD        LTEN         GR         CCL          QP         TEMP        CWH         CWHC        ILS         QPSG        CFS        FDIDEN   
# ...
  1430.1216     57.1134    285.6537     21.7837  31372.0703   1382.6002     76.8737      0.2835  32043.4570     10.7526      0.7276     16.2655      0.6078
  1430.2740     57.1134    284.6688     17.7358  29846.1914   1382.8322     76.8737      0.2851  32031.2500     10.7964      0.7096     16.2286      0.6120
  1430.4264     57.1134    284.6688     13.9935  31738.2813   1382.9630     76.8737      0.2835  32043.4570     10.7659      0.7458     16.2378      0.6112
  1430.5788     57.1134    284.6688     11.0702  31829.8340   1383.0836     76.8737      0.2861  32023.1113     10.8065      0.7283     16.2942      0.6047
  1430.7312     57.1134    284.6688      9.7612  32043.4570   1383.2468     76.8737      0.2835  32043.4570     10.7623      0.7100     16.2153      0.6003
  1430.8836     58.1650    284.6688     10.1402  31738.2813   1383.4636     76.8737      0.2835  32043.4570     10.7285      0.7379     16.2030      0.6062
  1431.0360     58.1650    284.6688     11.3442  31890.8691   1383.5786     76.8737      0.2851  32031.2500     10.7347      0.7433     16.3127      0.6099
  1431.1884     58.1650    286.6388     12.7657  31768.7988   1383.7234     76.8737      0.2861  32023.1113     10.7257      0.6712     16.3146      0.6120
  1431.3408     58.1650    286.6388     14.7183  31738.2813   1383.8912     76.8737      0.2835  32043.4570     10.7965      0.7264     16.2927      0.6105
  1431.4932     58.1650    286.6388     17.4641  32104.4922   1384.0455     76.8737      0.2835  32043.4570     10.8139      0.7121     16.3221      0.6086
  1431.6456     58.1650    287.6238     20.1472  31738.2813   1384.2084     76.8737      0.2835  32043.4570     10.8903      0.7309     16.3149      0.6147
  1431.7980     58.1650    287.6238     21.3171  31616.2109   1384.3408     76.8737      0.2835  32043.4570     10.8620      0.7213     16.2451      0.6117
  1431.9504     57.4944    285.6537     20.4269  31616.2109   1384.5249     76.8737      0.2846  32034.7383     10.8855      0.7185     16.2542      0.6064
  1432.1028     57.4944    285.6537     18.3635  31616.2109   1384.6709     76.8737      0.2824  32052.1758     10.8473      0.7362     16.2635      0.6104
  1432.2552     57.4944    285.6537     16.6048  32196.0449   1384.8313     76.8737      0.2835  32043.4570     10.8679      0.7390     16.2287      0.6124
  1432.4076     57.4944    284.6688     16.3028  32226.5625   1384.9791     76.8737      0.2846  32034.7383     10.8397      0.7393     16.2057      0.6126
  1432.5600     57.4944    284.6688     17.8116  31616.2109   1385.1656     76.8737      0.2835  32043.4570     10.7985      0.7561     16.2575      0.6136
  1432.7124     57.4944    284.6688     20.4479  31768.7988   1385.3119     76.8737      0.2846  32034.7383     10.8443      0.7458     16.2846      0.6116
  1432.8648     57.4639    284.6688     22.6975  32226.5625   1385.4868     76.8737      0.2835  32043.4570     10.8890      0.7558     16.3063      0.6123
  1433.0172     57.4639    284.6688     23.0976  31799.3164   1385.6257     76.8737      0.2835  32043.4570     10.9027      0.7299     16.3609      0.6174
  1433.1696     57.4639    286.6388     21.3393  31921.3867   1385.8209     76.8737      0.2851  32031.2500     10.9305      0.7086     16.3063      0.6199
  1433.3220     57.4639    285.6537     18.5104  31819.6621   1385.9447     76.8737      0.2841  32038.7617     10.8096      0.7534     16.3194      0.6156
  1433.4744     57.4639    285.6537     16.1296  32012.9395   1386.1012     76.8737      0.2835  32043.4570     10.8502      0.6898     16.3355      0.6096
  1433.6268     57.4639    286.6388     14.9419  31921.3867   1386.2789     76.8737      0.2835  32043.4570     10.7955      0.7348     16.3450      0.6123
  1433.7792     57.7474    284.6688     14.5755  31677.2461   1386.4189     76.8952      0.2835  32043.4570     10.8157      0.7524     16.3597      0.6198
  1433.9316     57.7474    284.6688     14.1557  31962.0762   1386.5818     76.8737      0.2855  32028.1992     10.8053      0.7404     16.2235      0.6219
  1434.0840     57.7474    285.6537     13.4372  32104.4922   1386.7535     76.8737      0.2835  32043.4570     10.7679      0.7558     16.2632      0.6204
  1434.2364     57.7474    285.6537     13.2127  31707.7637   1386.9209     76.9124      0.2866  32019.0430     10.7667      0.7055     16.1826      0.6229
  1434.3888     57.7474    284.6688     14.0328  31616.2109   1387.0742     76.8979      0.2851  32031.2500     10.7770      0.7176     16.1346      0.6231
  1434.5412     57.7474    285.6537     15.3056  31875.6094   1387.1935     76.9124      0.2846  32034.7383     10.7562      0.7210     16.1914      0.6212
  1434.6936     57.4030    285.6537     16.1787  32185.8730   1387.3757     76.8737      0.2835  32043.4570     10.7045      0.7044     16.2190      0.6159
  1434.8460     57.4030    285.6537     16.0096  31860.3516   1387.5460     76.8737      0.2851  32031.2500     10.6915      0.7382     16.2605      0.6169
  1434.9984     57.4030    286.6388     14.4826  31433.1055   1387.6849     76.8979      0.2861  32023.1113     10.6880      0.7310     16.2517      0.6171
  1435.1508     57.4030    286.6388     12.4846  31941.7324   1387.8335     76.8737      0.2835  32043.4570     10.6760      0.7203     16.3374      0.6157
  1435.3032     57.4030    287.6238     11.4418  31982.4219   1388.0095     76.8737      0.2835  32043.4570     10.6921      0.7240     16.3903      0.6165
  1435.4556     57.4030    287.6238     11.5021  31890.8691   1388.1705     76.9059      0.2824  32052.1758     10.6848      0.7272     16.3775      0.6191
  1435.6080     57.4030    286.6388     11.9337  31616.2109   1388.3126     76.9124      0.2848  32033.2852     10.7037      0.7783     16.3712      0.6179
  1435.7604     57.1287    287.6238     12.5727  31677.2461   1388.4640     76.9124      0.2861  32023.1113     10.6424      0.7326     16.4032      0.6181
  1435.9128     57.1287    287.6238     13.5895  31738.2813   1388.6843     76.8737      0.2844  32036.6758     10.6167      0.7441     16.4091      0.6179
  1436.0652     57.1287    285.6537     14.7756  31860.3516   1388.8057     76.9059      0.2851  32031.2500     10.6698      0.7575     16.3239      0.6154
  1436.2176     57.1287    284.6688     15.6841  31707.7637   1388.9578     76.8737      0.2848  32033.2852     10.6605      0.7029     16.3348      0.6107
  1436.3700     57.1287    284.6688     16.0583  31890.8691   1389.1207     76.8737      0.2874  32012.9395     10.6888      0.7126     16.2573      0.6102
  1436.5224     57.1287    284.6688     16.1779  31738.2813   1389.2937     76.9124      0.2835  32043.4570     10.7155      0.7407     16.2873      0.6124
  1436.6748     56.9854    284.6688     16.5515  31768.7988   1389.4235     76.9035      0.2855  32028.1992     10.7546      0.6962     16.3472      0.6134
  1436.8272     56.9854    284.6688     17.2723  31677.2461   1389.6000     76.9124      0.2835  32043.4570     10.6865      0.7328     16.3410      0.6150
  1436.9796     56.9854    285.6537     18.1489  32043.4570   1389.7244     76.8737      0.2835  32043.4570     10.6518      0.7537     16.2488      0.6135
  1437.1320     56.9854    285.6537     18.7390  31890.8691   1389.9291     76.9089      0.2851  32031.2500     10.6643      0.7237     16.1916      0.6151
  1437.2844     56.9854    287.6238     18.3571  31860.3516   1390.0769     76.9220      0.2835  32043.4570     10.6979      0.8097     16.1980      0.6165
  1437.4368     56.9854    287.6238     17.2540  32043.4570   1390.2274     76.8737      0.2835  32043.4570     10.7175      0.7317     16.1627      0.6151
  1437.5892     57.6102    287.6238     16.8806  31921.3867   1390.4264     76.9167      0.2851  32031.2500     10.7094      0.7441     16.1227      0.6099
  1437.7416     57.6102    287.6238     17.9709  31738.2813   1390.5635     76.9059      0.2848  32033.2852     10.7291      0.7410     16.1896      0.6056
  1437.8940     57.6102    286.6388     19.5368  31921.3867   1390.7220     76.9220      0.2835  32043.4570     10.7201      0.7181     16.2577      0.6018
