~Version Information
VERS.                            2.0: CWLS Log ASCII STANDARD - VERSION 2.0
WRAP.                             NO: One line per depth step
~Well Information
STRT.M                        3.6576: START DEPTH
STOP.M                     2390.0892: STOP DEPTH
STEP.M                        0.1524: STEP
NULL.                      -999.2500: NULL VALUE
COMP.                               : COMPANY
WELL.                               : WELL
FLD.                                : FIELD
LOC.                                : LOCATION
DATE.                Wed Sep 11 08-05-24 2024: LOG DATE
SECT.                               : SECTION
TOWN.                               : TOWNSHIP
RANG.                               : RANGE
OS.                                 : OTHER SERVICES
PDAT.FT                             : PERMANENT DATUM
EEL.FT                              : ELEVATION
LMF.FT                              : LOG MEASURED FROM
DMF.FT                              : DRILLING MEASURED FROM
EKB.FT                              : KB
EDF.FT                              : DF
EGL.FT                              : GL
DATE1.                              : DATE1
RUN1.                               : RUN NUMBER
TDD1.FT                             : DEPTH DRILLER
TDL1.FT                             : DEPTH LOGGER
BLI1.FT                             : BOTTOM LOGGED INTERVAL
TLI1.FT                             : TOP LOG INTERVAL
CDD1.IN_FT                          : CASING DRILLER
CDL1.FT                             : CASING LOGGER
BS1.IN                              : BIT SIZE
DFT1.                               : TYPE FLUID IN HOLE
DFDV1.GM/C3_CP                      : DENSITY/VISCOSITY
DFPL1.C3                            : PH/FLUID LOSS
MSS1.                               : SOURCE OF SAMPLE
RMT1.OHHM_DEGF                      : RM@MEASURED TEMP
RMFT1.OHMM_DEGF                     : RMF@MEASURED TEMP
RMCT1.OHMM_DEGF                     : RMC@MEASURED TEMP
RMFS1.                              : SOURCE OF RMF/RMC
RMBT1.OHMM_DEGF                     : RM@BHT
TCS1.                               : TIME CIRCULATION STOPPED
TLOB1.                              : TIME LOGGER ON BOTTOM
BHT1.DEGF                           : MAXIMUM RECORDED TEMPERATURE
LUN1.                               : EQUIPMENT NUMBER
LUL1.                               : LOCATION
ENGI1.                              : RECORDED BY
WITN1.                              : WITNESSED BY
COMW.                               : Common Well Name
~Curve Information
DEPT.M                   0 000 00 00: Depth
LSPD.M/MIN                         0: Line Speed
LTEN.LB                            0: Surface Line Tension
GR.GAPI                            0: Gamma Ray
CCL.                               0: Casing Collar Locator
QP.PSI                             0: Quartz Pressure
TEMP.DEGC                          0: Downhole Temperature
CWH.                               0: Capacitance Water Holdup
CWHC.CPS                           0: CWH Counts
ILS.RPS                            0: Flowmeter
QPSG.                              0: Specific Gravity from QP
CFS.RPS                            0: Flowmeter
FDIDEN.G/CC                        0: FDI Fluid Density
~Parameter Information
~A  Depth       LSPD        LTEN         GR         CCL          QP         TEMP        CWH         CWHC        ILS         QPSG        CFS        FDIDEN   
# ...
  2381.0976     25.9720    508.2653     15.5322  31921.3867   2475.5168     82.2063      1.0729  25860.5957      1.4136      1.1317      1.7055      1.1537
  2381.2500     25.9720    506.2953     15.1027  31778.9707   2475.7559     82.2310      1.0735  25855.4316      1.4061      1.0762      1.6935      1.1531
  2381.4024     25.7678    508.2653     14.7175  31808.0352   2476.0012     82.2283      1.0737  25854.4922      1.4032      1.1193      1.7035      1.1553
  2381.5548     25.7678    507.2803     14.6140  31921.3867   2476.2153     82.2268      1.0740  25851.7793      1.4061      1.1038      1.7155      1.1560
  2381.7072     25.7129    504.3253     14.6763  31713.8672   2476.4873     82.2340      1.0737  25854.4922      1.4011      1.1098      1.7157      1.1557
  2381.8596     25.7129    507.2803     14.7843  31784.0586   2476.7129     82.2505      1.0738  25853.2070      1.4059      1.1486      1.7027      1.1565
  2382.0120     25.7129    508.2653     15.1213  31646.7285   2476.9634     82.2656      1.0740  25851.7793      1.4064      1.1109      1.7003      1.1581
  2382.1644     25.7830    509.2503     15.8447  31997.6797   2477.2112     82.2466      1.0741  25851.1621      1.4027      1.1410      1.7178      1.1560
  2382.3168     25.7830    510.2353     16.6369  31901.0410   2477.4504     82.2631      1.0737  25854.4922      1.4002      1.1303      1.7360      1.1559
  2382.4692     25.7830    510.2353     16.9480  31784.0586   2477.7021     82.2602      1.0744  25848.3887      1.4044      1.1103      1.7099      1.1577
  2382.6216     25.7373    510.2353     16.5979  31840.0059   2477.9434     82.2765      1.0742  25850.1836      1.4131      1.1331      1.6940      1.1575
  2382.7740     25.7373    508.2653     15.9356  31811.5234   2478.1738     82.2656      1.0743  25849.6094      1.4134      1.1098      1.7111      1.1571
  2382.9264     25.7373    508.2653     15.4679  31799.3164   2478.4329     82.2751      1.0741  25851.1621      1.4098      1.1041      1.7021      1.1561
  2383.0788     25.8501    509.2503     15.3136  31778.9707   2478.6643     82.2895      1.0741  25851.1621      1.4085      1.1343      1.6977      1.1581
  2383.2312     25.8501    510.2353     15.2317  31860.3516   2478.9006     82.2940      1.0742  25849.8418      1.4051      1.1010      1.6715      1.1605
  2383.3836     25.8501    509.2503     15.1787  31880.6973   2479.1572     82.2913      1.0742  25850.1836      1.4131      1.1137      1.6681      1.1589
  2383.5360     25.6002    508.2653     15.3588  31921.3867   2479.3875     82.3090      1.0739  25852.7480      1.4084      1.1269      1.6816      1.1577
  2383.6884     25.6002    506.2953     15.6145  31921.3867   2479.6299     82.3090      1.0737  25854.4922      1.4043      1.1345      1.6870      1.1579
  2383.8408     25.6002    508.2653     15.3004  31717.9355   2479.8777     82.3307      1.0741  25851.1621      1.4019      1.1435      1.7208      1.1568
  2383.9932     25.9720    508.2653     14.2668  31860.3516   2480.1409     82.3240      1.0739  25852.3691      1.3944      1.1303      1.7114      1.1548
  2384.1456     25.9720    507.2803     13.4134  31753.5391   2480.3789     82.3390      1.0742  25850.1836      1.4082      1.1343      1.7036      1.1526
  2384.2980     25.7434    507.2803     13.3920  31941.7324   2480.6099     82.3296      1.0744  25848.3887      1.4070      1.0991      1.7096      1.1521
  2384.4504     25.7434    507.2803     13.6638  31901.0410   2480.8611     82.3402      1.0741  25851.1621      1.4184      1.1174      1.6965      1.1529
  2384.6028     25.7434    508.2653     13.7582  31753.5391   2481.0938     82.3481      1.0744  25848.3887      1.4051      1.1331      1.6952      1.1539
  2384.7552     25.6306    509.2503     14.1838  31914.6055   2481.3477     82.3622      1.0743  25849.6094      1.4012      1.1157      1.6580      1.1561
  2384.9076     25.6306    507.2803     15.1091  31778.9707   2481.5923     82.3559      1.0749  25844.9980      1.4016      1.1241      1.6505      1.1576
  2385.0600     25.6306    508.2653     15.6657  31799.3164   2481.8284     82.3501      1.0744  25848.3887      1.4009      1.1016      1.6491      1.1576
  2385.2124     25.9324    508.2653     15.4189  31799.3164   2482.0684     82.3648      1.0748  25845.6152      1.4014      1.1058      1.6654      1.1575
  2385.3648     25.9324    506.2953     15.0205  31787.1094   2482.3027     82.3676      1.0742  25850.1836      1.3995      1.1362      1.6917      1.1592
  2385.5172     25.9324    507.2803     15.0037  31860.3516   2482.5510     82.3741      1.0746  25847.0625      1.4003      1.1365      1.6960      1.1576
  2385.6696     25.7526    508.2653     15.2555  31768.7988   2482.8135     82.3834      1.0744  25848.3887      1.4122      1.1410      1.7081      1.1570
  2385.8220     25.7526    506.2953   -999.2500  31901.0410   2483.0537     82.3912      1.0751  25843.3027      1.4126      1.1424      1.6945      1.1573
  2385.9744     25.7526    511.2203   -999.2500  31758.6270   2483.2920     82.3927      1.0744  25848.3887      1.4215   -999.2500      1.7081      1.1577
  2386.1268     25.6002    508.2653   -999.2500  31810.0879   2483.5415     82.3977      1.0751  25843.0039      1.4109   -999.2500      1.7006      1.1602
  2386.2792     25.6002    507.2803   -999.2500   -999.2500   -999.2500     82.3939      1.0748  25845.6152      1.4148   -999.2500      1.6880   -999.2500
  2386.4316     25.6062    509.2503   -999.2500   -999.2500   -999.2500     82.4183      1.0749  25844.9980      1.4110   -999.2500      1.6523   -999.2500
  2386.5840     25.6062    509.2503   -999.2500   -999.2500   -999.2500     82.4261      1.0752  25842.2852      1.4203   -999.2500      1.6524   -999.2500
  2386.7364     25.6062    509.2503   -999.2500   -999.2500   -999.2500     82.4332      1.0749  25844.7266      1.4245   -999.2500      1.6634   -999.2500
  2386.8888     25.8288    509.2503   -999.2500   -999.2500   -999.2500     82.4261      1.0755  25840.3574      1.4261   -999.2500      1.6733   -999.2500
  2387.0412     25.8288    507.2803   -999.2500   -999.2500   -999.2500     82.4468      1.0750  25844.0293      1.4311   -999.2500      1.6746   -999.2500
  2387.1936     25.8288    509.2503   -999.2500   -999.2500   -999.2500     82.4617      1.0752  25842.2852   -999.2500   -999.2500      1.6730   -999.2500
  2387.3460     25.7434    507.2803   -999.2500   -999.2500   -999.2500     82.4687      1.0755  25840.0664   -999.2500   -999.2500      1.6654   -999.2500
  2387.4984     25.7434    507.2803   -999.2500   -999.2500   -999.2500     82.4742      1.0750  25844.0293   -999.2500   -999.2500      1.6563   -999.2500
  2387.6508     25.7434    509.2503   -999.2500   -999.2500   -999.2500     82.4949      1.0749  25844.9980   -999.2500   -999.2500      1.6549   -999.2500
  2387.8032     25.7739    507.2803   -999.2500   -999.2500   -999.2500     82.5042      1.0750  25844.0293   -999.2500   -999.2500      1.6643   -999.2500
  2387.9556     25.7739    507.2803   -999.2500   -999.2500   -999.2500     82.4864      1.0755  25840.3574   -999.2500   -999.2500      1.6595   -999.2500
  2388.1080     25.7739    507.2803   -999.2500   -999.2500   -999.2500     82.5042      1.0753  25841.7539   -999.2500   -999.2500      1.6372   -999.2500
  2388.2604     25.9933    507.2803   -999.2500   -999.2500   -999.2500     82.5120      1.0755  25840.0664   -999.2500   -999.2500      1.6480   -999.2500
  2388.4128     25.9933    507.2803   -999.2500   -999.2500   -999.2500     82.5237      1.0752  25842.2852   -999.2500   -999.2500      1.6656   -999.2500
  2388.5652     25.9933    509.2503   -999.2500   -999.2500   -999.2500     82.5042      1.0757  25838.2168   -999.2500   -999.2500      1.6811   -999.2500
  2388.7176     25.7678    508.2653   -999.2500   -999.2500   -999.2500     82.5219      1.0763  25833.9336   -999.2500   -999.2500      1.6851   -999.2500
  2388.8700     25.7678    508.2653   -999.2500   -999.2500   -999.2500     82.5145      1.0757  25838.2168   -999.2500   -999.2500      1.6703   -999.2500
