~Version Information
VERS.                            2.0: CWLS Log ASCII STANDARD - VERSION 2.0
WRAP.                             NO: One line per depth step
~Well Information
STRT.M                     2229.9168: START DEPTH
STOP.M                     2385.0600: STOP DEPTH
STEP.M                        0.1524: STEP
NULL.                      -999.2500: NULL VALUE
COMP.                               : COMPANY
WELL.                               : WELL
FLD.                                : FIELD
LOC.                                : LOCATION
DATE.                Wed Sep 11 12-22-31 2024: LOG DATE
SECT.                               : SECTION
TOWN.                               : TOWNSHIP
RANG.                               : RANGE
OS.                                 : OTHER SERVICES
PDAT.FT                             : PERMANENT DATUM
EEL.FT                              : ELEVATION
LMF.FT                              : LOG MEASURED FROM
DMF.FT                              : DRILLING MEASURED FROM
EKB.FT                              : KB
EDF.FT                              : DF
EGL.FT                              : GL
DATE1.                              : DATE1
RUN1.                               : RUN NUMBER
TDD1.FT                             : DEPTH DRILLER
TDL1.FT                             : DEPTH LOGGER
BLI1.FT                             : BOTTOM LOGGED INTERVAL
TLI1.FT                             : TOP LOG INTERVAL
CDD1.IN_FT                          : CASING DRILLER
CDL1.FT                             : CASING LOGGER
BS1.IN                              : BIT SIZE
DFT1.                               : TYPE FLUID IN HOLE
DFDV1.GM/C3_CP                      : DENSITY/VISCOSITY
DFPL1.C3                            : PH/FLUID LOSS
MSS1.                               : SOURCE OF SAMPLE
RMT1.OHHM_DEGF                      : RM@MEASURED TEMP
RMFT1.OHMM_DEGF                     : RMF@MEASURED TEMP
RMCT1.OHMM_DEGF                     : RMC@MEASURED TEMP
RMFS1.                              : SOURCE OF RMF/RMC
RMBT1.OHMM_DEGF                     : RM@BHT
TCS1.                               : TIME CIRCULATION STOPPED
TLOB1.                              : TIME LOGGER ON BOTTOM
BHT1.DEGF                           : MAXIMUM RECORDED TEMPERATURE
LUN1.                               : EQUIPMENT NUMBER
LUL1.                               : LOCATION
ENGI1.                              : RECORDED BY
WITN1.                              : WITNESSED BY
COMW.                               : Common Well Name
~Curve Information
DEPT.M                   0 000 00 00: Depth
LSPD.M/MIN                         0: Line Speed
LTEN.LB                            0: Surface Line Tension
GR.GAPI                            0: Gamma Ray
CCL.                               0: Casing Collar Locator
QP.PSI                             0: Quartz Pressure
TEMP.DEGC                          0: Downhole Temperature
CWH.                               0: Capacitance Water Holdup
CWHC.CPS                           0: CWH Counts
ILS.RPS                            0: Flowmeter
QPSG.                              0: Specific Gravity from QP
CFS.RPS                            0: Flowmeter
FDIDEN.G/CC                        0: FDI Fluid Density
~Parameter Information
~A  Depth       LSPD        LTEN         GR         CCL          QP         TEMP        CWH         CWHC        ILS         QPSG        CFS        FDIDEN   
# ...
  2237.8416      9.8115    573.2757      4.4159  31829.8340   2383.5525     80.2742      0.3278  31696.9023      1.8425      0.8051      2.5536      0.8375
  2237.9940      9.7262    577.2158      5.2672  31811.5234   2383.7329     80.2752      0.3292  31685.6230      1.8470      0.8146      2.5036      0.8375
  2238.1464      9.8481    576.2307      6.0854  31819.6621   2383.8965     80.2780      0.3299  31680.4590      1.8542      0.7992      2.4707      0.8369
  2238.2988      9.8024    577.2158      6.5798  31824.7480   2384.0776     80.2764      0.3280  31695.4492      1.8478      0.7834      2.4644      0.8370
  2238.4512      9.7201    577.2158      6.4274  31806.9453   2384.2454     80.2752      0.3291  31686.5566      1.8453      0.7834      2.4555      0.8371
  2238.6036      9.8633    576.2307      5.7682  31835.9375   2384.4121     80.2780      0.3284  31692.2539      1.8500      0.7603      2.4196      0.8367
  2238.7560      9.7719    575.2457      5.2593  31823.7305   2384.5757     80.2752      0.3284  31692.2168      1.8547      0.7519      2.4424      0.8362
  2238.9084      9.7810    576.2307      5.4262  31822.2051   2384.7368     80.2752      0.3283  31692.7637      1.8576      0.7499      2.4918      0.8361
  2239.0608      9.7963    576.2307      6.1877  31832.6074   2384.8972     80.2809      0.3284  31692.2539      1.8551      0.7566      2.4910      0.8369
  2239.2132      9.7963    576.2307      7.1411  31819.6621   2385.0623     80.2752      0.3301  31678.2813      1.8581      0.7488      2.5007      0.8362
  2239.3656      9.7566    576.2307      8.0150  31823.1992   2385.2317     80.2821      0.3309  31672.0742      1.8551      0.7519      2.5209      0.8356
  2239.5180      9.7658    574.2607      8.8113  31821.8027   2385.3860     80.2780      0.3287  31689.9141      1.8543      0.7451      2.5345      0.8361
  2239.6704      9.6286    578.2007      9.7173  31819.6621   2385.5491     80.2806      0.3288  31688.6250      1.8548      0.7386      2.5303      0.8359
  2239.8228      9.8268    574.2607     10.7384  31828.2285   2385.7083     80.2846      0.3283  31692.8047      1.8669      0.7530      2.4823      0.8368
  2239.9752      9.7658    577.2158     11.4599  31827.7988   2385.8721     80.2806      0.3287  31689.4531      1.8650      0.7538      2.4921      0.8362
  2240.1276      9.6896    578.2007     11.5460  31815.3789   2386.0388     80.2838      0.3280  31695.4492      1.8658      0.7671      2.4341      0.8349
  2240.2800      9.8786    573.2757     11.2513  31831.6289   2386.2026     80.2752      0.3275  31698.9707      1.8645      0.7696      2.3747      0.8345
  2240.4324      9.7506    575.2457     11.0451  31812.5840   2386.3733     80.2766      0.3289  31688.2520      1.8751      0.7814      2.3526      0.8341
  2240.5848      9.7109    577.2158     11.0504  31817.2676   2386.5393     80.2821      0.3282  31693.6777      1.8670      0.7975      2.3339      0.8345
  2240.7372      9.8481    572.2907     11.1644  31827.7988   2386.7163     80.2821      0.3316  31666.7227      1.8608      0.7907      2.3307      0.8358
  2240.8896      9.7658    576.2307     11.4048  31812.5840   2386.8940     80.2809      0.3291  31686.2520      1.8629      0.8096      2.3704      0.8372
  2241.0420      9.7201    571.3057     11.6909  31852.2129   2387.0588     80.2846      0.3293  31685.0137      1.8650      0.8045      2.4253      0.8380
  2241.1944      9.7262    574.2607     11.4956  31807.2773   2387.2412     80.2764      0.3294  31684.4883      1.8655      0.8065      2.4565      0.8379
  2241.3468      9.7810    576.2307     10.3217  31819.6621   2387.4138     80.2821      0.3318  31665.4668      1.8663      0.8051      2.4821      0.8382
  2241.4992      9.7810    573.2757      8.3905  31838.1563   2387.5933     80.2806      0.3304  31676.2109      1.8691      0.8011      2.5052      0.8382
  2241.6516      9.8024    574.2607      6.4590  31812.8789   2387.7568     80.2764      0.3284  31691.6719      1.8719      0.8014      2.5294      0.8376
  2241.8040      9.7414    574.2607      5.1778  31799.3164   2387.9358     80.2846      0.3310  31671.8926      1.8621      0.7969      2.4803      0.8361
  2241.9564      9.9243    572.2907      4.7379  31842.0410   2388.1086     80.2838      0.3325  31659.6602      1.8563      0.8194      2.5190      0.8341
  2242.1088      9.7963    575.2457      4.9415  31837.4629   2388.2842     80.2780      0.3293  31684.7422      1.8513      0.8087      2.5264      0.8341
  2242.2612      9.7658    572.2907      5.4974  31823.7305   2388.4673     80.2793      0.3293  31684.7422      1.8480      0.8186      2.5014      0.8353
  2242.4136      9.9090    573.2757      6.1692  31826.4434   2388.6370     80.2821      0.3310  31671.6973      1.8342      0.8192      2.4234      0.8357
  2242.5660      9.8115    578.2007      6.7904  31814.5742   2388.8184     80.2780      0.3315  31667.9355      1.8350      0.8118      2.3884      0.8355
  2242.7184      9.7963    573.2757      7.3462  31823.7305   2388.9944     80.2793      0.3313  31669.4785      1.8369      0.8099      2.4114      0.8359
  2242.8708      9.9030    579.1857      7.9579  31814.5742   2389.1711     80.2846      0.3291  31686.8828      1.8412      0.8054      2.4132      0.8361
  2243.0232      9.8268    574.2607      8.7047  31813.4023   2389.3391     80.2809      0.3286  31690.2539      1.8465      0.8110      2.4293      0.8359
  2243.1756      9.7810    573.2757      9.4413  31829.8340   2389.5166     80.2846      0.3290  31687.2344      1.8514      0.8051      2.4743      0.8364
  2243.3280      9.7414    575.2457      9.8149  31819.6621   2389.6975     80.2838      0.3302  31678.2461      1.8539      0.8161      2.5261      0.8365
  2243.4804      9.8024    573.2757      9.5946  31822.2051   2389.8691     80.2821      0.3287  31689.4531      1.8552      0.8118      2.5096      0.8355
  2243.6328      9.8024    576.2307      8.9156  31819.6621   2390.0466     80.2846      0.3294  31684.4883      1.8470      0.8056      2.4734      0.8361
  2243.7852      9.8176    576.2307      8.0723  31817.6270   2390.2205     80.2793      0.3301  31678.3555      1.8614      0.8118      2.4811      0.8369
  2243.9376      9.7506    573.2757      7.2492  31829.8340   2390.3960     80.2846      0.3291  31686.8828      1.8739      0.8146      2.4840      0.8360
  2244.0900      9.9395    581.1558      6.5620  31823.7305   2390.5730     80.2838      0.3296  31682.5996      1.8747      0.8217      2.5201      0.8359
  2244.2424      9.8328    573.2757      6.2021  31826.4434   2390.7529     80.2912      0.3288  31689.0254      1.8757      0.8166      2.5725      0.8371
  2244.3948      9.7719    578.2007      6.3790  31831.0547   2390.9329     80.2870      0.3304  31676.1758      1.8738      0.8203      2.5563      0.8372
  2244.5472      9.9639    580.1708      7.1208  31795.7266   2391.1040     80.2846      0.3289  31688.0176      1.8707      0.8253      2.5479      0.8360
  2244.6996      9.8268    575.2457      8.2042  31935.4727   2391.2842     80.2870      0.3296  31682.7949      1.8733      0.8161      2.4927      0.8358
  2244.8520      9.7719    578.2007      9.3271  31788.5449   2391.4685     80.2885      0.3294  31684.4883      1.8639      0.8239      2.4650      0.8357
  2245.0044      9.8176    576.2307     10.3257  31822.7910   2391.6404     80.2889      0.3312  31669.7500      1.8622      0.8138      2.4367      0.8354
  2245.1568      9.7810    572.2907     11.1022  31808.0352   2391.8184     80.2809      0.3299  31680.2480      1.8576      0.8127      2.3771      0.8350
  2245.3092      9.7414    575.2457     11.4709  31827.7988   2391.9897     80.2846      0.3271  31701.8750      1.8507      0.8222      2.3083      0.8353
  2245.4616      9.7262    575.2457     11.3049  31814.5742   2392.1731     80.2838      0.3291  31686.5566      1.8460      0.8172      2.2942      0.8357
  2245.6140      9.9030    573.2757     10.7032  31817.2676   2392.3533     80.2889      0.3299  31680.4590      1.8443      0.8231      2.2953      0.8356
