~Version Information
VERS.                            2.0: CWLS Log ASCII STANDARD - VERSION 2.0
WRAP.                             NO: One line per depth step
~Well Information
STRT.M                     2229.9168: START DEPTH
STOP.M                     2385.0600: STOP DEPTH
STEP.M                        0.1524: STEP
NULL.                      -999.2500: NULL VALUE
COMP.                               : COMPANY
WELL.                               : WELL
FLD.                                : FIELD
LOC.                                : LOCATION
DATE.                Wed Sep 11 12-22-31 2024: LOG DATE
SECT.                               : SECTION
TOWN.                               : TOWNSHIP
RANG.                               : RANGE
OS.                                 : OTHER SERVICES
PDAT.FT                             : PERMANENT DATUM
EEL.FT                              : ELEVATION
LMF.FT                              : LOG MEASURED FROM
DMF.FT                              : DRILLING MEASURED FROM
EKB.FT                              : KB
EDF.FT                              : DF
EGL.FT                              : GL
DATE1.                              : DATE1
RUN1.                               : RUN NUMBER
TDD1.FT                             : DEPTH DRILLER
TDL1.FT                             : DEPTH LOGGER
BLI1.FT                             : BOTTOM LOGGED INTERVAL
TLI1.FT                             : TOP LOG INTERVAL
CDD1.IN_FT                          : CASING DRILLER
CDL1.FT                             : CASING LOGGER
BS1.IN                              : BIT SIZE
DFT1.                               : TYPE FLUID IN HOLE
DFDV1.GM/C3_CP                      : DENSITY/VISCOSITY
DFPL1.C3                            : PH/FLUID LOSS
MSS1.                               : SOURCE OF SAMPLE
RMT1.OHHM_DEGF                      : RM@MEASURED TEMP
RMFT1.OHMM_DEGF                     : RMF@MEASURED TEMP
RMCT1.OHMM_DEGF                     : RMC@MEASURED TEMP
RMFS1.                              : SOURCE OF RMF/RMC
RMBT1.OHMM_DEGF                     : RM@BHT
TCS1.                               : TIME CIRCULATION STOPPED
TLOB1.                              : TIME LOGGER ON BOTTOM
BHT1.DEGF                           : MAXIMUM RECORDED TEMPERATURE
LUN1.                               : EQUIPMENT NUMBER
LUL1.                               : LOCATION
ENGI1.                              : RECORDED BY
WITN1.                              : WITNESSED BY
COMW.                               : Common Well Name
~Curve Information
DEPT.M                   0 000 00 00: Depth
LSPD.M/MIN                         0: Line Speed
LTEN.LB                            0: Surface Line Tension
GR.GAPI                            0: Gamma Ray
CCL.                               0: Casing Collar Locator
QP.PSI                             0: Quartz Pressure
TEMP.DEGC                          0: Downhole Temperature
CWH.                               0: Capacitance Water Holdup
CWHC.CPS                           0: CWH Counts
ILS.RPS                            0: Flowmeter
QPSG.                              0: Specific Gravity from QP
CFS.RPS                            0: Flowmeter
FDIDEN.G/CC                        0: FDI Fluid Density
~Parameter Information
~A  Depth       LSPD        LTEN         GR         CCL          QP         TEMP        CWH         CWHC        ILS         QPSG        CFS        FDIDEN   
# ...
  2356.7136      9.9852    611.6910     19.2318  31795.2480   2531.0222     81.8709      1.0455  26075.0195      0.4305      1.0909      0.6079      1.1377
  2356.8660      9.9639    603.8109     18.3994  31745.4609   2531.2539     81.8761      1.0454  26075.9316      0.4436      1.1089      0.6119      1.1372
  2357.0184     10.0462    601.8409     17.8646  31835.9375   2531.4905     81.8745      1.0465  26067.1836      0.4452      1.1016      0.6170      1.1357
  2357.1708     10.0401    602.8259     18.4241  31790.5977   2531.7412     81.8776      1.0467  26065.3418      0.4744      1.1117      0.5739      1.1355
  2357.3232      9.9182    603.8109     19.9080  31844.0762   2531.9773     81.8804      1.0468  26065.1152      0.4942      1.1131      0.5658      1.1370
  2357.4756      9.9182    600.8559     21.5015  31849.7363   2532.2178     81.8761      1.0470  26063.0469      0.5079      1.1230      0.5389      1.1375
  2357.6280     10.0249    603.8109     22.3962  31845.0938   2532.4556     81.8790      1.0468  26065.1152      0.5199      1.1328      0.5133      1.1357
  2357.7804      9.9792    601.8409     22.2861  31811.5234   2532.7148     81.8832      1.0470  26063.2090      0.5425      1.1244      0.5571      1.1355
  2357.9328      9.9944    613.6610     21.3854  31785.7539   2532.9595     81.8856      1.0476  26058.7988      0.5673      1.1261      0.6195      1.1356
  2358.0852     10.0401    600.8559     20.2143  31773.1582   2533.1926     81.8804      1.0478  26056.6582      0.5702      1.1064      0.6502      1.1365
  2358.2376      9.9030    595.9308     19.3509  31732.1777   2533.4319     81.8790      1.0467  26065.3418      0.5784      1.1053      0.6818      1.1370
  2358.3900      9.8481    606.7659     19.0568  31762.6953   2533.6741     81.8819      1.0468  26065.1152      0.5864      1.1081      0.7394      1.1364
  2358.5424      9.8481    600.8559     19.2862  31826.4434   2533.9177     81.8856      1.0461  26070.0723      0.5833      1.1033      0.7642      1.1368
  2358.6948      9.9548    600.8559     20.0324  31881.8926   2534.1533     81.8845      1.0457  26073.3906      0.5899      1.0960      0.7414      1.1376
  2358.8472      9.9944    605.7809     21.2878  31848.7266   2534.3884     81.8832      1.0452  26077.5703      0.5879      1.1129      0.7083      1.1373
  2358.9996      9.9639    601.8409     22.9028  31821.8027   2534.6243     81.8856      1.0439  26087.8750      0.5814      1.1140      0.7203      1.1344
  2359.1520     10.0401    602.8259     24.5575  31849.7363   2534.8826     81.8845      1.0436  26089.5371      0.5712      1.1281      0.7226      1.1296
  2359.3044      9.9944    602.8259     25.6487  31808.9531   2535.1191     81.8856      1.0432  26093.0645      0.5707      1.1292      0.7069      1.1280
  2359.4568      9.8938    601.8409     25.6459  31848.7266   2535.3665     81.8903      1.0430  26094.1934      0.5680      1.1143      0.6848      1.1253
  2359.6092      9.9182    606.7659     24.6612  31860.3516   2535.6033     81.8913      1.0445  26083.0957      0.5585      1.1160      0.6863      1.1238
  2359.7616      9.9243    602.8259     23.1761  31868.4902   2535.8486     81.8966      1.0454  26075.4609      0.5453      1.0979      0.6790      1.1254
  2359.9140      9.9090    604.7959     21.3893  31901.0410   2536.0867     81.8974      1.0459  26072.0000      0.5445      1.1019      0.6662      1.1277
  2360.0664      9.9700    601.8409     19.3930  31792.5352   2536.3184     81.8981      1.0446  26081.6680      0.5478      1.0945      0.6894      1.1320
  2360.2188      9.9944    602.8259     17.7428  31870.5234   2536.5586     81.8981      1.0418  26103.8984      0.5463      1.0943      0.7166      1.1328
  2360.3712      9.9944    613.6610     17.2613  31715.3926   2536.7976     81.8988      1.0407  26112.3398      0.5659      1.1019      0.7007      1.1294
  2360.5236      9.9700    608.7360     18.6002  31732.7324   2537.0354     81.8981      1.0403  26115.5723      0.5706      1.1106      0.6971      1.1259
  2360.6760      9.9334    601.8409     22.3471  31636.5566   2537.2737     81.9055      1.0408  26111.9492      0.5829      1.1140      0.7127      1.1261
  2360.8284      9.9792    605.7809     28.6947  31814.5742   2537.5215     81.8974      1.0417  26104.6211      0.5904      1.1236      0.6619      1.1276
  2360.9808     10.0554    606.7659     36.4605  31848.1445   2537.7634     81.9055      1.0416  26105.9141      0.5991      1.1207      0.6159      1.1249
  2361.1332      9.9700    604.7959     43.1437  31765.4082   2538.0095     81.9045      1.0425  26098.6328      0.6001      1.1036      0.6071      1.1244
  2361.2856     10.1011    604.7959     46.3753  31695.5566   2538.2454     81.9055      1.0425  26098.6328      0.5860      1.1036      0.6052      1.1238
  2361.4380     10.0096    603.8109     45.5688  31700.1348   2538.4783     81.9121      1.0429  26095.2070      0.5925      1.1019      0.5737      1.1244
  2361.5904      9.8877    609.7209     42.7988  31833.2246   2538.7202     81.9118      1.0429  26095.6426      0.5995      1.1168      0.5428      1.1272
  2361.7428      9.9852    608.7360     41.8362  31883.2402   2538.9648     81.9118      1.0433  26092.0117      0.6068      1.1188      0.5573      1.1227
  2361.8952      9.9395    605.7809     44.9178  31807.2773   2539.2136     81.9045      1.0427  26096.7188      0.6049      1.1196      0.5706      1.1176
  2362.0476      9.9487    607.7510     49.8758  31768.7988   2539.4482     81.9118      1.0428  26096.1504      0.5997      1.0968      0.5781      1.1095
  2362.2000      9.9487    609.7209     51.8452  31727.6660   2539.6909     81.9187      1.0426  26097.7109      0.5944      1.0954      0.5753      1.1065
  2362.3524      9.9700    603.8109     48.4210  31726.0742   2539.9158     81.9187      1.0429  26095.2070      0.5902      1.0968      0.5893      1.1107
  2362.5048     10.0401    607.7510     41.5287  31685.2070   2540.1633     81.9187      1.0439  26087.8750      0.5884      1.0926      0.5866      1.1196
  2362.6572      9.9852    601.8409     34.5039  31689.4531   2540.3992     81.9187      1.0451  26078.0742      0.5815      1.1007      0.6043      1.1296
  2362.8096      9.8877    605.7809     29.4119  31719.9707   2540.6382     81.9264      1.0473  26061.0117      0.5783      1.1098      0.6593      1.1331
  2362.9620     10.0614    605.7809     26.6819  31812.8789   2540.8701     81.9255      1.0470  26063.1211      0.5883      1.1219      0.6921      1.1318
  2363.1144      9.9548    602.8259     25.6295  31745.0625   2541.1255     81.9261      1.0436  26089.9434      0.6059      1.1126      0.7183      1.1295
  2363.2668      9.9243    603.8109     25.1929  31902.6074   2541.3718     81.9258      1.0435  26090.9238      0.6082      1.1230      0.7553      1.1273
  2363.4192     10.0858    606.7659     24.9471  32028.1992   2541.6028     81.9319      1.0440  26086.6406      0.5968      1.0920      0.7953      1.1243
  2363.5716      9.9487    601.8409     25.9537  31834.9199   2541.8438     81.9329      1.0444  26083.8926      0.5901      1.0867      0.7979      1.1184
  2363.7240      9.9334    608.7360     30.0894  31934.9492   2542.0723     81.9392      1.0442  26085.3164      0.5860      1.0943      0.7858      1.1100
  2363.8764      9.9090    600.8559     37.4122  31845.0938   2542.3140     81.9324      1.0385  26129.9570      0.5823      1.1072      0.7963      1.1066
  2364.0288      9.9090    605.7809     44.7571  31867.9805   2542.5515     81.9385      1.0377  26136.3633      0.5861      1.1100      0.7649      1.1103
  2364.1812      9.9792    609.7209     48.5178  31806.0977   2542.8037     81.9482      1.0340  26165.2168      0.5854      1.1013      0.7132      1.1125
  2364.3336      9.9852    600.8559     48.0022  31768.7988   2543.0347     81.9529      1.0411  26109.7305      0.5779      1.1024      0.6494      1.1132
  2364.4860      9.9548    606.7659     44.5675  31898.4980   2543.2688     81.9506      1.0450  26079.0215      0.5680      1.0903      0.6114      1.1166
