~Version Information
VERS.                            2.0: CWLS Log ASCII STANDARD - VERSION 2.0
WRAP.                             NO: One line per depth step
~Well Information
STRT.M                     2229.9168: START DEPTH
STOP.M                     2385.0600: STOP DEPTH
STEP.M                        0.1524: STEP
NULL.                      -999.2500: NULL VALUE
COMP.                               : COMPANY
WELL.                               : WELL
FLD.                                : FIELD
LOC.                                : LOCATION
DATE.                Wed Sep 11 12-22-31 2024: LOG DATE
SECT.                               : SECTION
TOWN.                               : TOWNSHIP
RANG.                               : RANGE
OS.                                 : OTHER SERVICES
PDAT.FT                             : PERMANENT DATUM
EEL.FT                              : ELEVATION
LMF.FT                              : LOG MEASURED FROM
DMF.FT                              : DRILLING MEASURED FROM
EKB.FT                              : KB
EDF.FT                              : DF
EGL.FT                              : GL
DATE1.                              : DATE1
RUN1.                               : RUN NUMBER
TDD1.FT                             : DEPTH DRILLER
TDL1.FT                             : DEPTH LOGGER
BLI1.FT                             : BOTTOM LOGGED INTERVAL
TLI1.FT                             : TOP LOG INTERVAL
CDD1.IN_FT                          : CASING DRILLER
CDL1.FT                             : CASING LOGGER
BS1.IN                              : BIT SIZE
DFT1.                               : TYPE FLUID IN HOLE
DFDV1.GM/C3_CP                      : DENSITY/VISCOSITY
DFPL1.C3                            : PH/FLUID LOSS
MSS1.                               : SOURCE OF SAMPLE
RMT1.OHHM_DEGF                      : RM@MEASURED TEMP
RMFT1.OHMM_DEGF                     : RMF@MEASURED TEMP
RMCT1.OHMM_DEGF                     : RMC@MEASURED TEMP
RMFS1.                              : SOURCE OF RMF/RMC
RMBT1.OHMM_DEGF                     : RM@BHT
TCS1.                               : TIME CIRCULATION STOPPED
TLOB1.                              : TIME LOGGER ON BOTTOM
BHT1.DEGF                           : MAXIMUM RECORDED TEMPERATURE
LUN1.                               : EQUIPMENT NUMBER
LUL1.                               : LOCATION
ENGI1.                              : RECORDED BY
WITN1.                              : WITNESSED BY
COMW.                               : Common Well Name
~Curve Information
DEPT.M                   0 000 00 00: Depth
LSPD.M/MIN                         0: Line Speed
LTEN.LB                            0: Surface Line Tension
GR.GAPI                            0: Gamma Ray
CCL.                               0: Casing Collar Locator
QP.PSI                             0: Quartz Pressure
TEMP.DEGC                          0: Downhole Temperature
CWH.                               0: Capacitance Water Holdup
CWHC.CPS                           0: CWH Counts
ILS.RPS                            0: Flowmeter
QPSG.                              0: Specific Gravity from QP
CFS.RPS                            0: Flowmeter
FDIDEN.G/CC                        0: FDI Fluid Density
~Parameter Information
~A  Depth       LSPD        LTEN         GR         CCL          QP         TEMP        CWH         CWHC        ILS         QPSG        CFS        FDIDEN   
# ...
  2317.0896      9.8420    602.8259     33.3842  31795.2480   2475.0784     80.8984      0.3037  31885.2637      0.9866      0.8006      0.9829      0.8428
  2317.2420      9.7871    598.8859     34.5148  31802.9063   2475.2480     80.9013      0.3036  31886.0508      0.9950      0.8017      0.8997      0.8430
  2317.3944      9.9090    595.9308     34.1694  32402.0391   2475.4248     80.9024      0.3041  31882.5469      1.0144      0.7972      0.9879      0.8430
  2317.5468      9.9090    595.9308     32.2837  31835.9375   2475.6055     80.9065      0.3046  31878.1074      1.0084      0.8025      1.1835      0.8443
  2317.6992      9.8572    595.9308     29.4863  31791.6875   2475.7695     80.9065      0.3044  31879.6250      1.0101      0.7986      1.2677      0.8450
  2317.8516      9.7963    599.8709     26.4177  31787.1094   2475.9438     80.9052      0.3045  31879.5000      1.0105      0.7941      1.2332      0.8453
  2318.0040      9.9182    594.9459     23.8586  31846.7891   2476.1172     80.9065      0.3044  31879.6250      1.0318      0.8056      1.3233      0.8454
  2318.1564      9.9243    595.9308     22.6011  31791.6875   2476.2939     80.9039      0.3045  31879.5000      1.0439      0.8025      1.1289      0.8447
  2318.3088      9.8786    599.8709     22.7744  31837.4629   2476.4680     80.9065      0.3040  31883.1113      1.0717      0.8051      0.8200      0.8446
  2318.4612      9.9182    594.9459     23.6273  31814.5742   2476.6396     80.9052      0.3045  31879.5000      1.0931      0.7913      0.7198      0.8448
  2318.6136      9.9548    604.7959     24.0624  31810.4141   2476.8152     80.9052      0.3047  31877.4844      1.1099      0.7879      0.8631      0.8447
  2318.7660      9.9334    596.9159     23.4960  31846.7891   2476.9800     80.9024      0.3048  31876.9043      1.1233      0.7885      0.9085      0.8453
  2318.9184      9.8481    594.9459     22.3424  31748.8965   2477.1511     80.9039      0.3050  31875.3418      1.1226      0.7885      0.9491      0.8452
  2319.0708     10.0157    598.8859     21.5717  31802.9063   2477.3232     80.9084      0.3054  31872.3594      1.1334      0.8028      0.9687      0.8445
  2319.2232      9.9090    593.9609     21.8780  31822.7910   2477.4988     80.9052      0.3055  31871.4492      1.1372      0.8051      0.9339      0.8452
  2319.3756      9.8420    598.8859     23.2055  31817.2676   2477.6760     80.9065      0.3053  31872.7656      1.1444      0.8017      0.6653      0.8455
  2319.5280      9.8420    599.8709     24.7189  31819.6621   2477.8491     80.9039      0.3051  31874.7129      1.1600      0.8028      0.4960      0.8455
  2319.6804     10.0706    594.9459     25.4848  31815.3789   2478.0183     80.9077      0.3052  31873.6680      1.1687      0.8065      0.5911      0.8457
  2319.8328      9.9030    599.8709     25.5196  31819.6621   2478.1948     80.9008      0.3055  31871.0586      1.1769      0.8025      0.6963      0.8452
  2319.9852      9.9030    597.9009     25.7369  31817.6270   2478.3752     80.9065      0.3055  31871.0586      1.1802      0.8073      0.7629      0.8447
  2320.1376      9.9090    596.9159     26.5762  31852.7227   2478.5449     80.9084      0.3058  31868.9180      1.1923      0.8051      0.6727      0.8443
  2320.2900      9.9334    598.8859     27.1991  31817.8926   2478.7183     80.9052      0.3053  31873.2012      1.1865      0.8031      0.4025      0.8440
  2320.4424      9.9852    594.9459     26.5100  31842.0410   2478.8928     80.8999      0.3050  31875.3418      1.1835      0.8155      0.1809      0.8445
  2320.5948      9.9334    609.7209     24.5858  31827.7988   2479.0715     80.9052      0.3045  31879.5000      1.1726      0.8124      0.1893      0.8450
  2320.7472     10.0554    597.9009     22.4424  31840.0059   2479.2520     80.9065      0.3039  31883.9082      1.1721      0.8228      0.0922      0.8445
  2320.8996      9.9487    595.9308     20.8695  31802.9063   2479.4226     80.9052      0.3042  31881.8926      1.1928      0.8070      0.2361      0.8445
  2321.0520      9.8633    601.8409     20.1230  31883.6035   2479.6062     80.9052      0.3042  31881.7676      1.2012      0.7975      0.3743      0.8443
  2321.2044      9.9030    599.8709     19.9648  31939.3379   2479.7712     80.9084      0.3040  31883.1113      1.2127      0.7930      0.2922      0.8436
  2321.3568      9.9030    598.8859     19.8139  31903.4355   2479.9434     80.9052      0.3039  31883.9082      1.1947      0.7800      0.1848      0.8438
  2321.5092      9.9334    604.7959     19.4989  31824.4492   2480.1101     80.9110      0.3043  31881.0410      1.2008      0.8008      0.1096      0.8442
  2321.6616      9.9243    592.9758     19.3647  31813.4023   2480.2825     80.9052      0.3046  31878.7773      1.1994      0.8093     -0.1326      0.8441
  2321.8140      9.9944    606.7659     19.5963  31815.3789   2480.4656     80.9052      0.3048  31876.9043      1.2006      0.8025     -0.3563      0.8436
  2321.9664     10.0858    598.8859     20.2072  31844.0762   2480.6450     80.9039      0.3048  31876.4746      1.1661      0.7459     -0.4184      0.8438
  2322.1188      9.9639    595.9308     21.2144  31838.8105   2480.8059     80.9077      0.3049  31875.8887      1.1047      0.7842     -0.4275      0.8437
  2322.2712      9.8786    598.8859     22.2110  31624.3496   2480.9292     80.9084      0.3046  31878.1074      1.0513      0.8256     -0.5228      0.8439
  2322.4236      9.9334    597.9009     22.4933  31955.2949   2481.1455     80.9121      0.3044  31879.6250      1.0175      0.8192     -0.6041      0.8452
  2322.5760      9.9548    600.8559     21.9174  31772.1895   2481.3608     80.9084      0.3043  31881.0410      0.9922      0.8253     -0.7058      0.8450
  2322.7284      9.9182    599.8709     20.9511  31756.5918   2481.5161     80.9052      0.3044  31879.6250      0.9389      0.8028     -0.7117      0.8443
  2322.8808     10.0767    595.9308     19.8704  31915.2832   2481.6448     80.9088      0.3044  31880.3262      0.8575      0.7978     -0.6918      0.8447
  2323.0332     10.0249    602.8259     18.4310  31835.9375   2481.8416     80.9121      0.3040  31882.7734      0.7847      0.8121     -0.6847      0.8444
  2323.1856      9.9182    600.8559     16.3479  31928.1680   2482.0525     80.9131      0.3049  31875.8887      0.6285      0.8425     -1.0191      0.8444
  2323.3380      9.9182    597.9009     13.7308  31876.6270   2482.2202     80.9052      0.3054  31871.8672      0.5010      0.8211     -1.1460      0.8445
  2323.4904      9.9182    600.8559     11.0413  31680.1523   2482.3752     80.9131      0.3055  31871.0586      0.5340      0.7949     -1.1020      0.8436
  2323.6428      9.9395    600.8559      8.8699  31443.8770   2482.5535     80.9097      0.3052  31873.6680      0.2359      0.7721     -1.1051      0.8437
  2323.7952      9.9334    606.7659      7.6308  32194.7188   2482.7417     80.9121      0.3039  31883.9082     -0.0470      0.7972     -1.4663      0.8440
  2323.9476      9.8938    596.9159      7.4835  32055.6641   2482.8896     80.9097      0.3027  31893.4551      0.7595      0.8603     -1.6450      0.8446
  2324.1000     10.0310    595.9308      8.8786  32023.1113   2483.0664     80.9039      0.3024  31895.8633      0.3181      0.8180     -1.6257      0.8443
  2324.2524      9.9334    596.9159     12.9434  31783.2539   2483.2993     80.9077      0.3029  31891.3867      0.4631      0.7530     -1.9033      0.8438
  2324.4048      9.8633    603.8109     20.8741  31754.5566   2483.4509     80.9121      0.3040  31882.7734      0.6370      0.7138     -2.3774      0.8440
  2324.5572      9.8725    597.9009     33.0808  31801.9707   2483.5425     80.9065      0.3039  31883.9082      0.7830      0.2616     -2.5932      0.8442
  2324.7096      9.9395    603.8109     49.0309  31774.1836   2483.6853     80.9084      0.3044  31879.6250      0.8666      0.5083     -2.9010      0.8535
  2324.8620      9.9334    602.8259     67.3367  31828.2285   2483.5261     80.9052      0.3061  31866.7754      0.9311      0.8451     -2.8869      0.8915
