~Version Information
VERS.                            2.0: CWLS Log ASCII STANDARD - VERSION 2.0
WRAP.                             NO: One line per depth step
~Well Information
STRT.M                        3.6576: START DEPTH
STOP.M                     2390.0892: STOP DEPTH
STEP.M                        0.1524: STEP
NULL.                      -999.2500: NULL VALUE
COMP.                               : COMPANY
WELL.                               : WELL
FLD.                                : FIELD
LOC.                                : LOCATION
DATE.                Wed Sep 11 08-05-24 2024: LOG DATE
SECT.                               : SECTION
TOWN.                               : TOWNSHIP
RANG.                               : RANGE
OS.                                 : OTHER SERVICES
PDAT.FT                             : PERMANENT DATUM
EEL.FT                              : ELEVATION
LMF.FT                              : LOG MEASURED FROM
DMF.FT                              : DRILLING MEASURED FROM
EKB.FT                              : KB
EDF.FT                              : DF
EGL.FT                              : GL
DATE1.                              : DATE1
RUN1.                               : RUN NUMBER
TDD1.FT                             : DEPTH DRILLER
TDL1.FT                             : DEPTH LOGGER
BLI1.FT                             : BOTTOM LOGGED INTERVAL
TLI1.FT                             : TOP LOG INTERVAL
CDD1.IN_FT                          : CASING DRILLER
CDL1.FT                             : CASING LOGGER
BS1.IN                              : BIT SIZE
DFT1.                               : TYPE FLUID IN HOLE
DFDV1.GM/C3_CP                      : DENSITY/VISCOSITY
DFPL1.C3                            : PH/FLUID LOSS
MSS1.                               : SOURCE OF SAMPLE
RMT1.OHHM_DEGF                      : RM@MEASURED TEMP
RMFT1.OHMM_DEGF                     : RMF@MEASURED TEMP
RMCT1.OHMM_DEGF                     : RMC@MEASURED TEMP
RMFS1.                              : SOURCE OF RMF/RMC
RMBT1.OHMM_DEGF                     : RM@BHT
TCS1.                               : TIME CIRCULATION STOPPED
TLOB1.                              : TIME LOGGER ON BOTTOM
BHT1.DEGF                           : MAXIMUM RECORDED TEMPERATURE
LUN1.                               : EQUIPMENT NUMBER
LUL1.                               : LOCATION
ENGI1.                              : RECORDED BY
WITN1.                              : WITNESSED BY
COMW.                               : Common Well Name
~Curve Information
DEPT.M                   0 000 00 00: Depth
LSPD.M/MIN                         0: Line Speed
LTEN.LB                            0: Surface Line Tension
GR.GAPI                            0: Gamma Ray
CCL.                               0: Casing Collar Locator
QP.PSI                             0: Quartz Pressure
TEMP.DEGC                          0: Downhole Temperature
CWH.                               0: Capacitance Water Holdup
CWHC.CPS                           0: CWH Counts
ILS.RPS                            0: Flowmeter
QPSG.                              0: Specific Gravity from QP
CFS.RPS                            0: Flowmeter
FDIDEN.G/CC                        0: FDI Fluid Density
~Parameter Information
~A  Depth       LSPD        LTEN         GR         CCL          QP         TEMP        CWH         CWHC        ILS         QPSG        CFS        FDIDEN   
# ...
  1271.6256     57.3725    256.1035     17.6519  31677.2461   1222.1055     75.8692      0.2664  32177.7344     11.3767      0.7233     17.0071      0.5486
  1271.7780     57.3725    256.1035     16.8621  32165.5273   1222.2814     75.8803      0.2653  32185.8730     11.4184      0.6902     16.9488      0.5452
  1271.9304     57.3725    257.0886     14.8836  31860.3516   1222.4038     75.8596      0.2648  32189.9414     11.4134      0.6847     16.9089      0.5442
  1272.0828     57.2902    256.1035     12.9979  31738.2813   1222.5413     75.8596      0.2664  32177.7344     11.3563      0.6486     17.0008      0.5515
  1272.2352     57.2902    256.1035     12.4675  31707.7637   1222.6991     75.9079      0.2646  32191.6855     11.3926      0.6796     17.0016      0.5499
  1272.3876     57.2902    255.1185     13.4025  31829.8340   1222.8438     75.8435      0.2662  32179.0898     11.3797      0.7230     16.9472      0.5440
  1272.5400     57.2902    254.1335     14.7007  31738.2813   1222.9930     75.8803      0.2679  32165.5273     11.3845      0.7369     16.9655      0.5473
  1272.6924     57.2902    254.1335     15.0131  31738.2813   1223.1681     75.8692      0.2660  32180.7852     11.3153      0.6923     17.0574      0.5477
  1272.8448     57.2902    254.1335     13.8316  31799.3164   1223.3380     75.8692      0.2648  32189.9414     11.4062      0.6898     17.0633      0.5507
  1272.9972     57.2902    256.1035     12.2604  31860.3516   1223.4440     75.9355      0.2640  32196.0449     11.4221      0.6779     17.0610      0.5601
  1273.1496     57.2140    256.1035     11.8995  31982.4219   1223.5911     75.9079      0.2640  32196.0449     11.3810      0.7124     17.0471      0.5572
  1273.3020     57.2140    256.1035     12.4939  31982.4219   1223.7559     75.8596      0.2660  32180.7852     11.3774      0.7333     17.1289      0.5521
  1273.4544     57.2140    257.0886     12.3232  32104.4922   1223.9557     75.8903      0.2648  32189.9414     11.4075      0.7266     17.0432      0.5535
  1273.6068     57.2140    257.0886     11.1447  32043.4570   1224.0797     75.9079      0.2660  32180.7852     11.4083      0.6975     17.0357      0.5592
  1273.7592     57.2140    256.1035     10.6460  31768.7988   1224.2211     75.9079      0.2679  32165.5273     11.3458      0.6446     17.0425      0.5612
  1273.9116     57.2140    256.1035     11.5099  31921.3867   1224.3606     75.9293      0.2660  32180.7852     11.3380      0.6782     16.9992      0.5560
  1274.0640     57.1683    256.1035     12.1845  31829.8340   1224.5145     75.9079      0.2664  32177.7344     11.3863      0.7124     16.9300      0.5415
  1274.2164     57.1683    255.1185     11.2361  31768.7988   1224.6677     75.9079      0.2653  32185.8730     11.3755      0.7389     17.0715      0.5350
  1274.3688     57.1683    255.1185      9.0625  32165.5273   1224.8387     75.9079      0.2688  32158.7461     11.3276      0.6950     17.0993      0.5334
  1274.5212     57.1683    256.1035      6.9028  32165.5273   1225.0012     75.9079      0.2679  32165.5273     11.3580      0.6884     17.1868      0.5424
  1274.6736     57.1683    256.1035      5.6477  31555.1758   1225.1171     75.9079      0.2668  32174.2461     11.4228      0.7136     17.1137      0.5464
  1274.8260     57.1683    256.1035      5.7032  31738.2813   1225.2645     75.9079      0.2668  32174.2461     11.3429      0.6796     17.2128      0.5408
  1274.9784     58.0796    257.0886      7.0858  31982.4219   1225.4574     75.9079      0.2664  32177.7344     11.3026      0.7137     17.1768      0.5432
  1275.1308     58.0796    259.0586      9.3622  31921.3867   1225.5905     75.9079      0.2653  32185.8730     11.3542      0.7126     17.0995      0.5451
  1275.2832     58.0796    259.0586     11.5224  31951.9043   1225.7358     75.9079      0.2664  32177.7344     11.3307      0.7037     17.0800      0.5425
  1275.4356     58.0796    259.0586     12.4764  31890.8691   1225.8823     75.9079      0.2664  32177.7344     11.2923      0.7133     17.0287      0.5442
  1275.5880     58.0796    259.0586     12.3281  31677.2461   1226.0675     75.9079      0.2648  32189.9414     11.2945      0.6986     17.1040      0.5523
  1275.7404     58.0796    258.0736     12.4664  31585.6934   1226.2089     75.9079      0.2653  32185.8730     11.3287      0.7003     17.1081      0.5593
  1275.8928     58.0796    256.1035     13.8254  32084.1465   1226.3416     75.9079      0.2666  32175.6992     11.3262      0.6565     17.0591      0.5554
  1276.0452     57.2658    256.1035     15.8401  32196.0449   1226.4895     75.9293      0.2660  32180.7852     11.2721      0.6482     17.0657      0.5450
  1276.1976     57.2658    257.0886     17.3453  31738.2813   1226.6367     75.9079      0.2664  32177.7344     11.2669      0.6775     16.9673      0.5378
  1276.3500     57.2658    257.0886     17.5740  31768.7988   1226.7709     75.9079      0.2664  32177.7344     11.3587      0.7023     16.9488      0.5439
  1276.5024     57.2658    257.0886     16.4109  32023.1113   1226.9290     75.8803      0.2660  32180.7852     11.2865      0.7223     16.9032      0.5562
  1276.6548     57.2658    258.0736     14.6033  31860.3516   1227.0984     75.9079      0.2648  32189.9414     11.2963      0.7207     16.9207      0.5613
  1276.8072     57.2658    258.0736     13.2913  31799.3164   1227.2629     75.9079      0.2664  32177.7344     11.3299      0.7054     17.0072      0.5572
  1276.9596     56.9549    258.0736     12.7719  31677.2461   1227.3958     75.9227      0.2666  32175.6992     11.3627      0.6954     16.9959      0.5548
  1277.1120     56.9549    259.0586     12.3520  31640.6250   1227.5405     75.9079      0.2640  32196.0449     11.3303      0.6665     17.0187      0.5567
  1277.2644     56.9549    259.0586     11.5444  32135.0098   1227.7013     75.9465      0.2640  32196.0449     11.3478      0.6709     17.0297      0.5653
  1277.4168     56.9549    258.0736     10.7314  31860.3516   1227.8408     75.9465      0.2653  32185.8730     11.3165      0.6748     17.0800      0.5685
  1277.5692     56.9549    259.0586     10.4923  31707.7637   1227.9774     75.9079      0.2648  32189.9414     11.3171      0.6919     17.0049      0.5655
  1277.7216     56.9549    259.0586     10.6231  31921.3867   1228.1256     75.9079      0.2660  32180.7852     11.2848      0.6993     16.9788      0.5626
  1277.8740     57.9669    258.0736     10.2592  31555.1758   1228.3011     75.9079      0.2653  32185.8730     11.3020      0.7009     16.9548      0.5621
  1278.0264     57.9669    258.0736      8.9949  31941.7324   1228.4471     75.9079      0.2650  32188.4160     11.2770      0.7006     16.8575      0.5630
  1278.1788     57.9669    257.0886      7.2960  31921.3867   1228.5851     75.9561      0.2679  32165.5273     11.3431      0.6981     16.9080      0.5647
  1278.3312     57.9669    257.0886      6.0443  32043.4570   1228.7330     75.9079      0.2668  32174.2461     11.2555      0.6796     16.9401      0.5686
  1278.4836     57.9669    257.0886      6.0792  31860.3516   1228.9064     75.9355      0.2648  32189.9414     11.3323      0.6927     16.9443      0.5668
  1278.6360     57.9669    256.1035      7.4156  31738.2813   1229.0364     75.8803      0.2666  32175.6992     11.2815      0.7088     16.9801      0.5631
  1278.7884     57.3512    258.0736      8.8866  31778.9707   1229.1857     75.9079      0.2664  32177.7344     11.2396      0.6834     17.0552      0.5639
  1278.9408     57.3512    258.0736      9.2325  31768.7988   1229.3475     75.9079      0.2660  32180.7852     11.2326      0.7323     17.0389      0.5709
  1279.0932     57.3512    258.0736      8.3049  31982.4219   1229.4989     75.9400      0.2648  32189.9414     11.2461      0.7236     17.0413      0.5723
  1279.2456     57.3512    259.0586      6.8785  31860.3516   1229.6713     75.9079      0.2661  32179.6133     11.2415      0.7506     17.0416      0.5677
  1279.3980     57.3512    259.0586      5.5356  31799.3164   1229.8130     75.9079      0.2640  32196.0449     11.2528      0.7327     16.9900      0.5540
