~Version Information
VERS.                            2.0: CWLS Log ASCII STANDARD - VERSION 2.0
WRAP.                             NO: One line per depth step
~Well Information
STRT.M                        3.6576: START DEPTH
STOP.M                     2390.0892: STOP DEPTH
STEP.M                        0.1524: STEP
NULL.                      -999.2500: NULL VALUE
COMP.                               : COMPANY
WELL.                               : WELL
FLD.                                : FIELD
LOC.                                : LOCATION
DATE.                Wed Sep 11 08-05-24 2024: LOG DATE
SECT.                               : SECTION
TOWN.                               : TOWNSHIP
RANG.                               : RANGE
OS.                                 : OTHER SERVICES
PDAT.FT                             : PERMANENT DATUM
EEL.FT                              : ELEVATION
LMF.FT                              : LOG MEASURED FROM
DMF.FT                              : DRILLING MEASURED FROM
EKB.FT                              : KB
EDF.FT                              : DF
EGL.FT                              : GL
DATE1.                              : DATE1
RUN1.                               : RUN NUMBER
TDD1.FT                             : DEPTH DRILLER
TDL1.FT                             : DEPTH LOGGER
BLI1.FT                             : BOTTOM LOGGED INTERVAL
TLI1.FT                             : TOP LOG INTERVAL
CDD1.IN_FT                          : CASING DRILLER
CDL1.FT                             : CASING LOGGER
BS1.IN                              : BIT SIZE
DFT1.                               : TYPE FLUID IN HOLE
DFDV1.GM/C3_CP                      : DENSITY/VISCOSITY
DFPL1.C3                            : PH/FLUID LOSS
MSS1.                               : SOURCE OF SAMPLE
RMT1.OHHM_DEGF                      : RM@MEASURED TEMP
RMFT1.OHMM_DEGF                     : RMF@MEASURED TEMP
RMCT1.OHMM_DEGF                     : RMC@MEASURED TEMP
RMFS1.                              : SOURCE OF RMF/RMC
RMBT1.OHMM_DEGF                     : RM@BHT
TCS1.                               : TIME CIRCULATION STOPPED
TLOB1.                              : TIME LOGGER ON BOTTOM
BHT1.DEGF                           : MAXIMUM RECORDED TEMPERATURE
LUN1.                               : EQUIPMENT NUMBER
LUL1.                               : LOCATION
ENGI1.                              : RECORDED BY
WITN1.                              : WITNESSED BY
COMW.                               : Common Well Name
~Curve Information
DEPT.M                   0 000 00 00: Depth
LSPD.M/MIN                         0: Line Speed
LTEN.LB                            0: Surface Line Tension
GR.GAPI                            0: Gamma Ray
CCL.                               0: Casing Collar Locator
QP.PSI                             0: Quartz Pressure
TEMP.DEGC                          0: Downhole Temperature
CWH.                               0: Capacitance Water Holdup
CWHC.CPS                           0: CWH Counts
ILS.RPS                            0: Flowmeter
QPSG.                              0: Specific Gravity from QP
CFS.RPS                            0: Flowmeter
FDIDEN.G/CC                        0: FDI Fluid Density
~Parameter Information
~A  Depth       LSPD        LTEN         GR         CCL          QP         TEMP        CWH         CWHC        ILS         QPSG        CFS        FDIDEN   
# ...
  2064.1056     55.9278    396.9595     19.4062  32012.9395   2082.4910     79.7719      0.3322  31661.9883     10.7339      0.8276     15.1553      0.7998
  2064.2580     55.9278    395.9745     19.8537  30944.8242   2082.6863     79.7440      0.3318  31665.0391     10.6431      0.8290     15.1447      0.7974
  2064.4104     55.9278    395.9745     19.1304  33203.1250   2082.8723     79.7719      0.3303  31677.2461     10.5300      0.8299     15.1856      0.7990
  2064.5628     55.5986    395.9745     16.9754  30029.2969   2083.0286     79.7719      0.3303  31677.2461     10.4224      0.7986     15.1676      0.8023
  2064.7152     55.5986    394.0045     14.5400  33105.4688   2083.2104     79.7719      0.3318  31665.0391     10.5253      0.7772     15.1304      0.7991
  2064.8676     55.5986    395.9745     13.8888  31555.1758   2083.3787     79.7719      0.3303  31677.2461     10.3984      0.8141     15.0932      0.7997
  2065.0200     55.5986    395.9745     16.1050  30822.7539   2083.5461     79.7719      0.3318  31665.0391     10.2789      0.7910     15.1710      0.7987
  2065.1724     55.5986    395.9745     19.7776  33243.8164   2083.7344     79.8109      0.3324  31660.5996     10.2477      0.8617     15.1884      0.7974
  2065.3248     55.5986    395.9745     21.7737  34423.8281   2083.8962     79.7719      0.3303  31677.2461     10.0637      0.8383     15.1967      0.7954
  2065.4772     55.5986    395.9745     20.3317  31646.7285   2084.1257     79.7719      0.3318  31665.0391      9.9849      0.8093     15.1928      0.7957
  2065.6296     56.3819    397.9445     16.9031  29541.0156   2084.2729     79.7719      0.3311  31670.4648      9.9675      0.8375     15.1869      0.7977
  2065.7820     56.3819    398.9295     14.1336  31250.0000   2084.4360     79.7719      0.3342  31646.7285      9.9996      0.8251     15.1722      0.7973
  2065.9344     56.3819    398.9295     13.2806  33630.3711   2084.6223     79.7936      0.3303  31677.2461     10.0083      0.8239     15.1394      0.7971
  2066.0868     56.3819    398.9295     14.4744  31188.9648   2084.8411     79.7719      0.3303  31677.2461      9.9035      0.8363     15.0845      0.7982
  2066.2392     56.3819    396.9595     17.3058  31463.6230   2084.9873     79.7719      0.3303  31677.2461      9.8634      0.8521     15.0831      0.7997
  2066.3916     56.3819    396.9595     19.9806  33650.7148   2085.1611     79.7998      0.3303  31677.2461      9.9582      0.8006     15.0856      0.7987
  2066.5440     56.1259    394.9895     20.3413  29174.8047   2085.3611     79.7719      0.3334  31652.8320     10.0080      0.8403     15.0813      0.7956
  2066.6964     56.1259    395.9745     18.7311  33020.0195   2085.5352     79.7719      0.3318  31665.0391      9.8144      0.8651     15.1197      0.7979
  2066.8488     56.1259    395.9745     17.6290  33508.3008   2085.7158     79.7897      0.3334  31652.8320      9.8972      0.8383     15.1504      0.7981
  2067.0012     56.1259    395.9745     18.2954  30029.2969   2085.9111     79.7719      0.3322  31661.9883      9.8805      0.8166     15.1957      0.8024
  2067.1536     56.1259    395.9745     19.6818  34729.0039   2086.0879     79.8109      0.3318  31665.0391      9.8223      0.8259     15.2061      0.8046
  2067.3060     56.1259    397.9445     20.3737  29581.7051   2086.2432     79.7834      0.3322  31661.9883      9.8493      0.8422     15.1897      0.8019
  2067.4584     56.1777    398.9295     20.3827  28564.4531   2086.4319     79.7719      0.3322  31661.9883      9.9144      0.8279     15.2320      0.8003
  2067.6108     56.1777    398.9295     21.0283  33325.1953   2086.6414     79.7719      0.3318  31665.0391      9.8640      0.8467     15.1599      0.8012
  2067.7632     56.1777    398.9295     23.1082  29846.1914   2086.8057     79.7936      0.3329  31656.9004      9.7952      0.8042     15.2406      0.7964
  2067.9156     56.1777    398.9295     25.2603  35217.2852   2086.9773     79.7998      0.3318  31665.0391      9.7605      0.8400     15.2527      0.7911
  2068.0680     56.1777    398.9295     25.2586  35278.3203   2087.1292     79.7719      0.3322  31661.9883      9.7962      0.7707     15.2602      0.7925
  2068.2204     56.1777    397.9445     22.9983  34301.7578   2087.3696     79.7936      0.3318  31665.0391      9.7742      0.7634     15.1901      0.7884
  2068.3728     56.6349    396.9595     20.5261  31311.0352   2087.4739     79.7719      0.3303  31677.2461      9.6924      0.8470     15.3000      0.7902
  2068.5252     56.6349    396.9595     19.2654  31616.2109   2087.6392     79.8109      0.3303  31677.2461      9.6171      0.7873     15.2713      0.7954
  2068.6776     56.6349    395.9745     19.0565  36010.7422   2087.8635     79.8109      0.3292  31685.9648      9.6291      0.8268     15.2648      0.7961
  2068.8300     56.6349    397.9445     19.5377  30120.8496   2088.0522     79.8044      0.3334  31652.8320      9.6279      0.8456     15.2754      0.7962
  2068.9824     56.6349    397.9445     20.8500  32958.9844   2088.1907     79.7963      0.3322  31661.9883      9.6872      0.8130     15.3022      0.7970
  2069.1348     56.6349    397.9445     23.2996  33203.1250   2088.3723     79.8207      0.3336  31651.0879      9.7360      0.8062     15.2704      0.7961
  2069.2872     56.2173    398.9295     27.0357  30334.4727   2088.5684     79.8109      0.3334  31652.8320      9.8244      0.8222     15.1826      0.7954
  2069.4396     56.2173    398.9295     31.1649  34973.1445   2088.7512     79.7719      0.3303  31677.2461      9.8143      0.7930     15.1585      0.7968
  2069.5920     56.2173    398.9295     33.2991  29022.2168   2088.9036     79.7998      0.3324  31660.5996      9.8764      0.8493     15.1589      0.7983
  2069.7444     56.2173    398.9295     31.8507  29205.3223   2089.0598     79.8109      0.3322  31661.9883      9.8842      0.7921     15.2094      0.7984
  2069.8968     56.2173    398.9295     28.4850  34912.1094   2089.3047     79.7936      0.3303  31677.2461      9.8579      0.7941     15.1533      0.8020
  2070.0492     56.2173    397.9445     26.7102  28564.4531   2089.4380     79.8109      0.3303  31677.2461      9.9035      0.8805     15.1942      0.8029
  2070.2016     56.0405    397.9445     28.7961  29357.9102   2089.5920     79.7719      0.3325  31659.8066      9.8391      0.7865     15.2709      0.7962
  2070.3540     56.0405    396.9595     34.6994  29785.1563   2089.8232     79.7936      0.3303  31677.2461      9.8721      0.8121     15.2203      0.7943
  2070.5064     56.0405    395.9745     42.3780  35186.7656   2089.9866     79.7998      0.3318  31665.0391      9.8958      0.8470     15.2213      0.7981
  2070.6588     56.0405    395.9745     48.4932  31219.4824   2090.1421     79.8109      0.3316  31667.0742      9.9572      0.8045     15.2829      0.8052
  2070.8112     56.0405    396.9595     50.3603  31188.9648   2090.3264     79.7719      0.3336  31651.0879      9.8835      0.7871     15.3708      0.8077
  2070.9636     56.0405    397.9445     48.4857  32470.7031   2090.5208     79.7719      0.3303  31677.2461      9.8625      0.8065     15.3319      0.8052
  2071.1160     55.7814    397.9445     46.5536  31941.7324   2090.6689     79.7849      0.3318  31665.0391      9.9174      0.8107     15.2856      0.8019
  2071.2684     55.7814    399.9145     47.4837  32897.9492   2090.8413     79.7719      0.3322  31661.9883      9.8821      0.8510     15.2429      0.8029
  2071.4208     55.7814    399.9145     49.6448  31494.1406   2091.0293     79.7719      0.3322  31661.9883      9.8923      0.8586     15.2473      0.8062
  2071.5732     55.7814    399.9145     48.8345  28900.1465   2091.2585     79.7719      0.3334  31652.8320      9.8531      0.9008     15.2075      0.8053
  2071.7256     55.7814    400.8995     43.8835  28442.3828   2091.4133     79.7936      0.3329  31656.9004      9.9227      0.9011     15.2134      0.8053
  2071.8780     55.7814    398.9295     38.2022  36437.9883   2091.6223     79.8109      0.3329  31656.9004      9.9797      0.7947     15.2892      0.8063
