~Version Information
VERS.                            2.0: CWLS Log ASCII STANDARD - VERSION 2.0
WRAP.                             NO: One line per depth step
~Well Information
STRT.M                     2229.9168: START DEPTH
STOP.M                     2385.0600: STOP DEPTH
STEP.M                        0.1524: STEP
NULL.                      -999.2500: NULL VALUE
COMP.                               : COMPANY
WELL.                               : WELL
FLD.                                : FIELD
LOC.                                : LOCATION
DATE.                Wed Sep 11 12-22-31 2024: LOG DATE
SECT.                               : SECTION
TOWN.                               : TOWNSHIP
RANG.                               : RANGE
OS.                                 : OTHER SERVICES
PDAT.FT                             : PERMANENT DATUM
EEL.FT                              : ELEVATION
LMF.FT                              : LOG MEASURED FROM
DMF.FT                              : DRILLING MEASURED FROM
EKB.FT                              : KB
EDF.FT                              : DF
EGL.FT                              : GL
DATE1.                              : DATE1
RUN1.                               : RUN NUMBER
TDD1.FT                             : DEPTH DRILLER
TDL1.FT                             : DEPTH LOGGER
BLI1.FT                             : BOTTOM LOGGED INTERVAL
TLI1.FT                             : TOP LOG INTERVAL
CDD1.IN_FT                          : CASING DRILLER
CDL1.FT                             : CASING LOGGER
BS1.IN                              : BIT SIZE
DFT1.                               : TYPE FLUID IN HOLE
DFDV1.GM/C3_CP                      : DENSITY/VISCOSITY
DFPL1.C3                            : PH/FLUID LOSS
MSS1.                               : SOURCE OF SAMPLE
RMT1.OHHM_DEGF                      : RM@MEASURED TEMP
RMFT1.OHMM_DEGF                     : RMF@MEASURED TEMP
RMCT1.OHMM_DEGF                     : RMC@MEASURED TEMP
RMFS1.                              : SOURCE OF RMF/RMC
RMBT1.OHMM_DEGF                     : RM@BHT
TCS1.                               : TIME CIRCULATION STOPPED
TLOB1.                              : TIME LOGGER ON BOTTOM
BHT1.DEGF                           : MAXIMUM RECORDED TEMPERATURE
LUN1.                               : EQUIPMENT NUMBER
LUL1.                               : LOCATION
ENGI1.                              : RECORDED BY
WITN1.                              : WITNESSED BY
COMW.                               : Common Well Name
~Curve Information
DEPT.M                   0 000 00 00: Depth
LSPD.M/MIN                         0: Line Speed
LTEN.LB                            0: Surface Line Tension
GR.GAPI                            0: Gamma Ray
CCL.                               0: Casing Collar Locator
QP.PSI                             0: Quartz Pressure
TEMP.DEGC                          0: Downhole Temperature
CWH.                               0: Capacitance Water Holdup
CWHC.CPS                           0: CWH Counts
ILS.RPS                            0: Flowmeter
QPSG.                              0: Specific Gravity from QP
CFS.RPS                            0: Flowmeter
FDIDEN.G/CC                        0: FDI Fluid Density
~Parameter Information
~A  Depth       LSPD        LTEN         GR         CCL          QP         TEMP        CWH         CWHC        ILS         QPSG        CFS        FDIDEN   
# ...
  2261.6160      9.8420    581.1558     14.3203  31812.8789   2410.9902     80.4071      0.3266  31706.1582      1.7609      0.8056      2.4825      0.8391
  2261.7684      9.8115    577.2158     13.1992  31838.1563   2411.1729     80.4037      0.3266  31706.2637      1.7576      0.8180      2.5337      0.8383
  2261.9208      9.9792    582.1407     12.1152  31826.4434   2411.3411     80.4122      0.3252  31716.7402      1.7554      0.8096      2.5261      0.8384
  2262.0732      9.8420    579.1857     12.1863  31817.6270   2411.5242     80.4022      0.3270  31702.7695      1.7538      0.8023      2.5904      0.8385
  2262.2256      9.8328    577.2158     13.5363  31835.9375   2411.6921     80.4071      0.3245  31722.1582      1.7582      0.8113      2.5844      0.8387
  2262.3780      9.8420    580.1708     15.1561  31833.2246   2411.8684     80.4053      0.3257  31713.4531      1.7536      0.7997      2.6146      0.8391
  2262.5304      9.8481    578.2007     15.8158  31811.5234   2412.0444     80.4090      0.3272  31701.0391      1.7562      0.8161      2.5361      0.8381
  2262.6828      9.8572    579.1857     14.9748  31845.0938   2412.2175     80.4037      0.3321  31662.8203      1.7503      0.8124      2.5104      0.8361
  2262.8352      9.8115    582.1407     13.1231  31832.6074   2412.3997     80.4103      0.3259  31711.3848      1.7445      0.8101      2.4757      0.8358
  2262.9876      9.9182    576.2307     11.3890  31833.2246   2412.5728     80.4122      0.3280  31695.1973      1.7453      0.8189      2.4074      0.8346
  2263.1400      9.9182    582.1407     10.6454  31843.7051   2412.7468     80.4086      0.3255  31714.7246      1.7433      0.8068      2.3770      0.8318
  2263.2924      9.8420    577.2158     11.0256  31826.1719   2412.9275     80.4090      0.3276  31698.3301      1.7414      0.8161      2.4061      0.8290
  2263.4448      9.7963    576.2307     12.2903  31814.5742   2413.0991     80.4122      0.3263  31708.2988      1.7320      0.8017      2.4138      0.8276
  2263.5972      9.9182    584.1108     14.1379  31833.8145   2413.2803     80.4086      0.3279  31696.1875      1.7289      0.7983      2.3443      0.8277
  2263.7496      9.8572    578.2007     15.9343  31824.4492   2413.4419     80.4103      0.3257  31712.8496      1.7279      0.8087      2.3689      0.8284
  2263.9020      9.8328    580.1708     16.8831  31834.6523   2413.6196     80.4103      0.3255  31714.7246      1.7279      0.8008      2.4255      0.8291
  2264.0544      9.9030    586.0808     16.7608  31811.5234   2413.8003     80.4122      0.3251  31717.5527      1.7351      0.8186      2.4716      0.8307
  2264.2068      9.8572    576.2307     15.9883  31827.7988   2413.9746     80.4103      0.3260  31710.4414      1.7271      0.8177      2.5037      0.8344
  2264.3592      9.8572    582.1407     15.1426  31831.6289   2414.1516     80.4142      0.3253  31716.0859      1.7169      0.8118      2.5176      0.8379
  2264.5116      9.7719    579.1857     14.6120  31802.9063   2414.3286     80.4122      0.3274  31699.7324      1.7126      0.8200      2.5819      0.8387
  2264.6640      9.9243    577.2158     14.3130  31822.2051   2414.5042     80.4090      0.3272  31701.0391      1.7137      0.8124      2.5747      0.8382
  2264.8164      9.8786    580.1708     13.8053  31838.8105   2414.6855     80.4180      0.3267  31704.9902      1.7160      0.8121      2.5185      0.8372
  2264.9688      9.8024    577.2158     12.9440  31817.2676   2414.8560     80.4103      0.3266  31706.1582      1.7113      0.8161      2.4842      0.8352
  2265.1212      9.8024    584.1108     12.1725  31828.2285   2415.0327     80.4142      0.3272  31701.4297      1.6984      0.8082      2.4585      0.8341
  2265.2736      9.9852    580.1708     12.0795  31831.6289   2415.2117     80.4150      0.3285  31691.1660      1.7069      0.8130      2.3926      0.8346
  2265.4260      9.8725    577.2158     12.8457  31824.4492   2415.3862     80.4163      0.3301  31678.2813      1.7067      0.8200      2.3283      0.8370
  2265.5784      9.8328    581.1558     13.9340  31824.4492   2415.5608     80.4169      0.3279  31696.1113      1.7106      0.8104      2.2620      0.8379
  2265.7308      9.8725    579.1857     14.2936  31828.5078   2415.7437     80.4142      0.3270  31703.1094      1.7065      0.8203      2.2304      0.8378
  2265.8832      9.8176    578.2007     13.3521  31824.4492   2415.9143     80.4190      0.3276  31698.3301      1.7134      0.8253      2.2071      0.8386
  2266.0356      9.8024    582.1407     11.7380  31822.2051   2416.0974     80.4169      0.3271  31701.8750      1.7149      0.8124      2.2472      0.8394
  2266.1880      9.7719    576.2307     10.6163  31827.0605   2416.2764     80.4213      0.3267  31704.9902      1.7187      0.8262      2.3011      0.8396
  2266.3404      9.9030    586.0808     10.4626  31829.8340   2416.4480     80.4169      0.3296  31682.5996      1.7257      0.8130      2.3620      0.8397
  2266.4928      9.8572    581.1558     10.6914  31819.6621   2416.6306     80.4237      0.3286  31690.6953      1.7287      0.8192      2.3942      0.8398
  2266.6452      9.7810    578.2007     10.4032  31829.8340   2416.8022     80.4190      0.3304  31676.1758      1.7257      0.8262      2.3741      0.8394
  2266.7976      9.8786    578.2007      9.4399  31837.4629   2416.9866     80.4237      0.3296  31682.4180      1.7247      0.8180      2.4107      0.8390
  2266.9500      9.8328    578.2007      8.5191  31817.6270   2417.1643     80.4291      0.3273  31700.7207      1.7399      0.8262      2.4465      0.8392
  2267.1024      9.8268    579.1857      8.2799  31833.2246   2417.3398     80.4236      0.3277  31697.5918      1.7482      0.8132      2.4475      0.8394
  2267.2548      9.9090    580.1708      8.6292  31853.5703   2417.5186     80.4263      0.3283  31692.7637      1.7433      0.8239      2.4560      0.8394
  2267.4072      9.9090    579.1857      9.2035  31814.5742   2417.6917     80.4259      0.3299  31680.4590      1.7467      0.8166      2.4764      0.8399
  2267.5596      9.8786    583.1258     10.0594  31827.4863   2417.8787     80.4259      0.3304  31676.2461      1.7467      0.8186      2.4930      0.8400
  2267.7120      9.8328    579.1857     11.5651  31833.2246   2418.0479     80.4236      0.3283  31692.8047      1.7478      0.8186      2.4769      0.8396
  2267.8644      9.7719    576.2307     13.5498  31809.4883   2418.2283     80.4278      0.3276  31698.3301      1.7397      0.8124      2.4550      0.8393
  2268.0168      9.8268    579.1857     14.9837  31817.6270   2418.4014     80.4236      0.3278  31696.8242      1.7332      0.8248      2.4811      0.8388
  2268.1692      9.8481    578.2007     15.0726  31829.8340   2418.5830     80.4236      0.3279  31696.1113      1.7336      0.8132      2.4703      0.8387
  2268.3216      9.8024    581.1558     14.2867  31846.2656   2418.7629     80.4235      0.3272  31701.4297      1.7400      0.8265      2.5037      0.8385
  2268.4740      9.9548    580.1708     13.6800  31730.6523   2418.9333     80.4259      0.3263  31708.3867      1.7395      0.8107      2.5217      0.8390
  2268.6264      9.8633    576.2307     13.4868  31809.4883   2419.1179     80.4284      0.3257  31713.4531      1.7472      0.8177      2.4995      0.8391
  2268.7788      9.7658    580.1708     12.9613  31817.6270   2419.2859     80.4284      0.3267  31704.9902      1.7450      0.8186      2.4986      0.8387
  2268.9312      9.7658    580.1708     11.6543  31833.2246   2419.4719     80.4327      0.3280  31694.8320      1.7389      0.8113      2.4604      0.8383
  2269.0836      9.8328    576.2307     10.1537  31829.8340   2419.6431     80.4302      0.3260  31710.6426      1.7369      0.8214      2.4371      0.8390
  2269.2360      9.8877    579.1857      9.2524  31814.5742   2419.8213     80.4236      0.3259  31711.6484      1.7445      0.8079      2.4115      0.8391
  2269.3884      9.8877    579.1857      9.0135  31842.0410   2419.9980     80.4263      0.3271  31702.2598      1.7482      0.8169      2.3942      0.8383
