~Version Information
VERS.                            2.0: CWLS Log ASCII STANDARD - VERSION 2.0
WRAP.                             NO: One line per depth step
~Well Information
STRT.M                     2229.9168: START DEPTH
STOP.M                     2385.0600: STOP DEPTH
STEP.M                        0.1524: STEP
NULL.                      -999.2500: NULL VALUE
COMP.                               : COMPANY
WELL.                               : WELL
FLD.                                : FIELD
LOC.                                : LOCATION
DATE.                Wed Sep 11 12-22-31 2024: LOG DATE
SECT.                               : SECTION
TOWN.                               : TOWNSHIP
RANG.                               : RANGE
OS.                                 : OTHER SERVICES
PDAT.FT                             : PERMANENT DATUM
EEL.FT                              : ELEVATION
LMF.FT                              : LOG MEASURED FROM
DMF.FT                              : DRILLING MEASURED FROM
EKB.FT                              : KB
EDF.FT                              : DF
EGL.FT                              : GL
DATE1.                              : DATE1
RUN1.                               : RUN NUMBER
TDD1.FT                             : DEPTH DRILLER
TDL1.FT                             : DEPTH LOGGER
BLI1.FT                             : BOTTOM LOGGED INTERVAL
TLI1.FT                             : TOP LOG INTERVAL
CDD1.IN_FT                          : CASING DRILLER
CDL1.FT                             : CASING LOGGER
BS1.IN                              : BIT SIZE
DFT1.                               : TYPE FLUID IN HOLE
DFDV1.GM/C3_CP                      : DENSITY/VISCOSITY
DFPL1.C3                            : PH/FLUID LOSS
MSS1.                               : SOURCE OF SAMPLE
RMT1.OHHM_DEGF                      : RM@MEASURED TEMP
RMFT1.OHMM_DEGF                     : RMF@MEASURED TEMP
RMCT1.OHMM_DEGF                     : RMC@MEASURED TEMP
RMFS1.                              : SOURCE OF RMF/RMC
RMBT1.OHMM_DEGF                     : RM@BHT
TCS1.                               : TIME CIRCULATION STOPPED
TLOB1.                              : TIME LOGGER ON BOTTOM
BHT1.DEGF                           : MAXIMUM RECORDED TEMPERATURE
LUN1.                               : EQUIPMENT NUMBER
LUL1.                               : LOCATION
ENGI1.                              : RECORDED BY
WITN1.                              : WITNESSED BY
COMW.                               : Common Well Name
~Curve Information
DEPT.M                   0 000 00 00: Depth
LSPD.M/MIN                         0: Line Speed
LTEN.LB                            0: Surface Line Tension
GR.GAPI                            0: Gamma Ray
CCL.                               0: Casing Collar Locator
QP.PSI                             0: Quartz Pressure
TEMP.DEGC                          0: Downhole Temperature
CWH.                               0: Capacitance Water Holdup
CWHC.CPS                           0: CWH Counts
ILS.RPS                            0: Flowmeter
QPSG.                              0: Specific Gravity from QP
CFS.RPS                            0: Flowmeter
FDIDEN.G/CC                        0: FDI Fluid Density
~Parameter Information
~A  Depth       LSPD        LTEN         GR         CCL          QP         TEMP        CWH         CWHC        ILS         QPSG        CFS        FDIDEN   
# ...
  2253.6912      9.9090    573.2757     18.2757  31822.2051   2401.7920     80.3643      0.3260  31710.4414      1.7637      0.8025      2.2393      0.8371
  2253.8436      9.8877    580.1708     15.2233  31821.5117   2401.9666     80.3721      0.3276  31698.2578      1.7610      0.8014      2.2689      0.8366
  2253.9960      9.7658    576.2307     13.5956  31833.2246   2402.1382     80.3779      0.3259  31711.6484      1.7478      0.8104      2.2897      0.8359
  2254.1484      9.8176    578.2007     12.4079  31826.4434   2402.3157     80.3766      0.3262  31709.3145      1.7437      0.8079      2.3373      0.8367
  2254.3008      9.8328    579.1857     11.6794  31819.6621   2402.4946     80.3779      0.3257  31713.3691      1.7355      0.8099      2.3850      0.8365
  2254.4532      9.8268    578.2007     11.5035  31845.0938   2402.6670     80.3773      0.3252  31716.8652      1.7392      0.8037      2.3914      0.8365
  2254.6056      9.7506    580.1708     11.7710  31817.6270   2402.8403     80.3804      0.3262  31709.3145      1.7256      0.8121      2.3875      0.8355
  2254.7580      9.7506    578.2007     12.0851  31806.9453   2403.0125     80.3839      0.3258  31712.5820      1.7266      0.8096      2.4195      0.8352
  2254.9104      9.9243    574.2607     12.1977  31810.4141   2403.1987     80.3804      0.3251  31717.5918      1.7232      0.8113      2.4244      0.8347
  2255.0628      9.8877    576.2307     12.6012  31846.7891   2403.3689     80.3848      0.3243  31723.7988      1.7209      0.8189      2.4173      0.8339
  2255.2152      9.7963    576.2307     14.0768  31799.3164   2403.5437     80.3773      0.3260  31710.4414      1.7170      0.8065      2.4544      0.8338
  2255.3676      9.9944    580.1708     16.5841  31829.8340   2403.7224     80.3779      0.3269  31703.7324      1.7184      0.8180      2.5016      0.8334
  2255.5200      9.8328    580.1708     19.0096  31860.3516   2403.8979     80.3773      0.3266  31706.1582      1.7161      0.8121      2.5333      0.8339
  2255.6724      9.7871    576.2307     20.0364  31809.4883   2404.0781     80.3880      0.3246  31721.7285      1.7112      0.8237      2.5490      0.8342
  2255.8248      9.8268    581.1558     19.3037  31822.2051   2404.2478     80.3848      0.3244  31723.2910      1.7078      0.8217      2.5484      0.8344
  2255.9772      9.8328    579.1857     17.7045  31829.8340   2404.4365     80.3869      0.3243  31724.2734      1.7165      0.8163      2.5458      0.8355
  2256.1296      9.8024    575.2457     16.2929  31826.4434   2404.6104     80.3858      0.3246  31721.7285      1.7292      0.8208      2.5153      0.8359
  2256.2820      9.7810    578.2007     15.3780  31806.9453   2404.7859     80.3839      0.3252  31716.8652      1.7362      0.8121      2.4799      0.8353
  2256.4344      9.9487    579.1857     14.9917  31823.7305   2404.9595     80.3869      0.3258  31712.5820      1.7310      0.8270      2.4395      0.8340
  2256.5868      9.8328    578.2007     15.2979  31799.3164   2405.1406     80.3848      0.3252  31716.8652      1.7321      0.8180      2.4161      0.8338
  2256.7392      9.8328    579.1857     16.1015  31767.5781   2405.3274     80.3869      0.3259  31711.3848      1.7356      0.8290      2.3807      0.8344
  2256.8916      9.8328    575.2457     16.7061  31853.1719   2405.4951     80.3848      0.3241  31725.4316      1.7374      0.8242      2.3404      0.8367
  2257.0440      9.8877    585.0958     16.4598  31812.5840   2405.6782     80.3773      0.3265  31707.2461      1.7407      0.8107      2.3253      0.8366
  2257.1964      9.8481    578.2007     15.2011  31828.2285   2405.8552     80.3848      0.3243  31723.9199      1.7469      0.8270      2.3115      0.8357
  2257.3488      9.8268    576.2307     13.4771  31831.6289   2406.0303     80.3830      0.3239  31727.5742      1.7506      0.8194      2.2739      0.8361
  2257.5012      9.8024    579.1857     12.2179  31831.0547   2406.2122     80.3839      0.3258  31711.9531      1.7507      0.8310      2.2518      0.8375
  2257.6536      9.8938    578.2007     11.8080  31819.6621   2406.3887     80.3839      0.3296  31682.7949      1.7512      0.8265      2.2993      0.8369
  2257.8060      9.8420    583.1258     11.8546  31819.6621   2406.5757     80.3848      0.3271  31702.5020      1.7530      0.8220      2.3218      0.8354
  2257.9584      9.8572    583.1258     11.8858  31828.2285   2406.7468     80.3848      0.3266  31706.0371      1.7497      0.8220      2.3562      0.8323
  2258.1108      9.9395    575.2457     11.7413  31819.6621   2406.9248     80.3779      0.3246  31721.7285      1.7386      0.8118      2.3756      0.8283
  2258.2632      9.8268    578.2007     11.4053  31824.4492   2407.1013     80.3787      0.3254  31715.2500      1.7357      0.8242      2.3907      0.8274
  2258.4156      9.7871    581.1558     10.8437  31819.6621   2407.2795     80.3839      0.3262  31709.3145      1.7413      0.8228      2.4001      0.8285
  2258.5680      9.8176    577.2158     10.0675  31808.9531   2407.4614     80.3942      0.3288  31689.0254      1.7385      0.8259      2.3645      0.8282
  2258.7204      9.8633    578.2007      9.2616  31819.6621   2407.6382     80.3911      0.3274  31699.7324      1.7438      0.8189      2.3780      0.8305
  2258.8728      9.8633    578.2007      8.6362  31823.1992   2407.8174     80.3958      0.3271  31702.5020      1.7490      0.8228      2.4222      0.8341
  2259.0252      9.8420    580.1708      8.1635  31826.4434   2407.9895     80.4000      0.3252  31716.7402      1.7416      0.8276      2.4630      0.8360
  2259.1776      9.8938    579.1857      7.7817  31814.5742   2408.1748     80.4022      0.3270  31703.1094      1.7378      0.8177      2.4620      0.8342
  2259.3300      9.9182    577.2158      7.7735  31819.6621   2408.3557     80.4053      0.3286  31690.4102      1.7395      0.8251      2.4898      0.8330
  2259.4824      9.8115    577.2158      8.4597  31816.7559   2408.5264     80.4037      0.3274  31699.7324      1.7436      0.8118      2.5059      0.8348
  2259.6348      9.7871    579.1857      9.6680  31814.5742   2408.7048     80.4037      0.3274  31699.7324      1.7506      0.8183      2.5150      0.8347
  2259.7872      9.8268    577.2158     10.9817  31833.2246   2408.8787     80.4053      0.3274  31699.9844      1.7560      0.8237      2.4691      0.8339
  2259.9396      9.8328    579.1857     12.2073  31822.2051   2409.0652     80.4053      0.3261  31710.2656      1.7592      0.8079      2.4517      0.8315
  2260.0920      9.7506    577.2158     13.2952  31806.0977   2409.2405     80.3985      0.3258  31711.9531      1.7574      0.8208      2.4854      0.8280
  2260.2444      9.8328    578.2007     14.1642  31819.6621   2409.4053     80.4053      0.3262  31709.3145      1.7603      0.8054      2.4727      0.8297
  2260.3968      9.8633    581.1558     14.7008  31819.6621   2409.5903     80.4033      0.3266  31706.2637      1.7632      0.8070      2.4618      0.8326
  2260.5492      9.7963    578.2007     14.8800  31806.9453   2409.7634     80.4053      0.3255  31714.7246      1.7659      0.8177      2.4416      0.8354
  2260.7016      9.8328    581.1558     14.9073  31812.8789   2409.9402     80.4033      0.3266  31706.2637      1.7660      0.8135      2.4357      0.8379
  2260.8540      9.9334    581.1558     14.9514  31826.4434   2410.1143     80.4000      0.3275  31698.9707      1.7626      0.8115      2.4452      0.8378
  2261.0064      9.9334    575.2457     14.8494  31804.4023   2410.2957     80.4037      0.3259  31711.3848      1.7623      0.8101      2.4473      0.8383
  2261.1588      9.8328    579.1857     14.5697  31826.4434   2410.4670     80.4071      0.3263  31708.3398      1.7726      0.8082      2.4492      0.8384
  2261.3112      9.7810    577.2158     14.4995  31829.8340   2410.6426     80.4086      0.3252  31716.8652      1.7596      0.8011      2.4757      0.8376
  2261.4636      9.9487    576.2307     14.6485  31810.4141   2410.8149     80.4110      0.3254  31715.5215      1.7639      0.8141      2.4722      0.8387
