~Version Information
VERS.                            2.0: CWLS Log ASCII STANDARD - VERSION 2.0
WRAP.                             NO: One line per depth step
~Well Information
STRT.M                        3.6576: START DEPTH
STOP.M                     2390.0892: STOP DEPTH
STEP.M                        0.1524: STEP
NULL.                      -999.2500: NULL VALUE
COMP.                               : COMPANY
WELL.                               : WELL
FLD.                                : FIELD
LOC.                                : LOCATION
DATE.                Wed Sep 11 08-05-24 2024: LOG DATE
SECT.                               : SECTION
TOWN.                               : TOWNSHIP
RANG.                               : RANGE
OS.                                 : OTHER SERVICES
PDAT.FT                             : PERMANENT DATUM
EEL.FT                              : ELEVATION
LMF.FT                              : LOG MEASURED FROM
DMF.FT                              : DRILLING MEASURED FROM
EKB.FT                              : KB
EDF.FT                              : DF
EGL.FT                              : GL
DATE1.                              : DATE1
RUN1.                               : RUN NUMBER
TDD1.FT                             : DEPTH DRILLER
TDL1.FT                             : DEPTH LOGGER
BLI1.FT                             : BOTTOM LOGGED INTERVAL
TLI1.FT                             : TOP LOG INTERVAL
CDD1.IN_FT                          : CASING DRILLER
CDL1.FT                             : CASING LOGGER
BS1.IN                              : BIT SIZE
DFT1.                               : TYPE FLUID IN HOLE
DFDV1.GM/C3_CP                      : DENSITY/VISCOSITY
DFPL1.C3                            : PH/FLUID LOSS
MSS1.                               : SOURCE OF SAMPLE
RMT1.OHHM_DEGF                      : RM@MEASURED TEMP
RMFT1.OHMM_DEGF                     : RMF@MEASURED TEMP
RMCT1.OHMM_DEGF                     : RMC@MEASURED TEMP
RMFS1.                              : SOURCE OF RMF/RMC
RMBT1.OHMM_DEGF                     : RM@BHT
TCS1.                               : TIME CIRCULATION STOPPED
TLOB1.                              : TIME LOGGER ON BOTTOM
BHT1.DEGF                           : MAXIMUM RECORDED TEMPERATURE
LUN1.                               : EQUIPMENT NUMBER
LUL1.                               : LOCATION
ENGI1.                              : RECORDED BY
WITN1.                              : WITNESSED BY
COMW.                               : Common Well Name
~Curve Information
DEPT.M                   0 000 00 00: Depth
LSPD.M/MIN                         0: Line Speed
LTEN.LB                            0: Surface Line Tension
GR.GAPI                            0: Gamma Ray
CCL.                               0: Casing Collar Locator
QP.PSI                             0: Quartz Pressure
TEMP.DEGC                          0: Downhole Temperature
CWH.                               0: Capacitance Water Holdup
CWHC.CPS                           0: CWH Counts
ILS.RPS                            0: Flowmeter
QPSG.                              0: Specific Gravity from QP
CFS.RPS                            0: Flowmeter
FDIDEN.G/CC                        0: FDI Fluid Density
~Parameter Information
~A  Depth       LSPD        LTEN         GR         CCL          QP         TEMP        CWH         CWHC        ILS         QPSG        CFS        FDIDEN   
# ...
  1588.6176     57.8968    313.2339     11.2313  31799.3164   1549.9635     77.7752      0.2980  31930.1055     10.5788      0.7682     15.6398      0.6673
  1588.7700     57.8968    313.2339     12.6465  31616.2109   1550.1320     77.7624      0.2972  31936.6445     10.6094      0.6850     15.7035      0.6642
  1588.9224     57.8968    313.2339     14.2615  31799.3164   1550.3273     77.7430      0.2976  31933.5938     10.5558      0.7604     15.6760      0.6685
  1589.0748     57.8968    313.2339     15.3068  31829.8340   1550.4421     77.7752      0.2972  31936.6445     10.6116      0.7896     15.6767      0.6718
  1589.2272     57.8968    313.2339     14.7581  31880.6973   1550.6228     77.7752      0.2976  31933.5938     10.6053      0.7299     15.6466      0.6712
  1589.3796     57.2353    313.2339     12.4559  31921.3867   1550.8165     77.7624      0.2976  31933.5938     10.6034      0.7954     15.6446      0.6669
  1589.5320     57.2353    314.2189     10.4669  31738.2813   1550.9601     77.7323      0.2976  31933.5938     10.6099      0.7602     15.7128      0.6673
  1589.6844     57.2353    314.2189     10.9464  31982.4219   1551.1317     77.7672      0.2991  31921.3867     10.5383      0.7597     15.7484      0.6643
  1589.8368     57.2353    314.2189     13.4157  31901.0410   1551.2819     77.7913      0.2991  31921.3867     10.5162      0.7727     15.7455      0.6663
  1589.9892     57.2353    314.2189     15.7487  31738.2813   1551.4752     77.7568      0.2976  31933.5938     10.5446      0.7345     15.7269      0.6683
  1590.1416     57.2353    313.2339     16.5702  31890.8691   1551.6300     77.8010      0.2991  31921.3867     10.5309      0.7397     15.7904      0.6687
  1590.2940     56.9244    313.2339     15.8165  31799.3164   1551.7686     77.7844      0.2976  31933.5938     10.5504      0.7052     15.7465      0.6693
  1590.4464     56.9244    311.2639     13.9576  31697.5918   1551.9232     77.7913      0.2980  31930.1055     10.5279      0.7274     15.7034      0.6670
  1590.5988     56.9244    311.2639     11.7109  31799.3164   1552.0867     77.7624      0.2991  31921.3867     10.4686      0.7251     15.6912      0.6649
  1590.7512     56.9244    313.2339     10.2069  31738.2813   1552.2606     77.7844      0.2991  31921.3867     10.4675      0.7492     15.6741      0.6681
  1590.9036     56.9244    312.2489     10.2183  31884.7656   1552.3972     77.7913      0.2982  31928.1680     10.4537      0.7951     15.6799      0.6640
  1591.0560     56.9244    312.2489     11.2585  31921.3867   1552.5728     77.7624      0.2991  31921.3867     10.4723      0.7551     15.7196      0.6620
  1591.2084     58.0583    313.2339     12.1710  31768.7988   1552.7760     77.7624      0.2976  31933.5938     10.4977      0.7513     15.7254      0.6648
  1591.3608     58.0583    314.2189     12.3586  31738.2813   1552.9153     77.7844      0.2965  31941.7324     10.4538      0.7466     15.6760      0.6675
  1591.5132     58.0583    314.2189     12.0914  31595.8652   1553.0486     77.7913      0.2976  31933.5938     10.3749      0.6788     15.6378      0.6690
  1591.6656     58.0583    314.2189     11.9278  31677.2461   1553.2201     77.7624      0.2991  31921.3867     10.4324      0.6627     15.6606      0.6650
  1591.8180     58.0583    314.2189     11.9744  31799.3164   1553.3645     77.7624      0.2982  31928.1680     10.4393      0.7185     15.6790      0.6676
  1591.9704     58.0583    313.2339     11.6140  31677.2461   1553.4899     77.7913      0.2952  31951.9043     10.4355      0.6772     15.6495      0.6716
  1592.1228     58.0583    312.2489     10.1810  31677.2461   1553.6715     77.7568      0.2991  31921.3867     10.3962      0.6796     15.6868      0.6693
  1592.2752     57.2445    312.2489      7.8910  31860.3516   1553.8073     77.8010      0.3011  31906.1289     10.3185      0.7106     15.6710      0.6695
  1592.4276     57.2445    313.2339      5.8486  31707.7637   1553.9537     77.8120      0.2976  31933.5938     10.3229      0.6823     15.6963      0.6673
  1592.5800     57.2445    312.2489      4.9944  32043.4570   1554.1060     77.8120      0.2991  31921.3867     10.3411      0.7882     15.7100      0.6651
  1592.7324     57.2445    312.2489      5.3044  32023.1113   1554.2631     77.8010      0.2991  31921.3867     10.3761      0.7565     15.6962      0.6679
  1592.8848     57.2445    312.2489      6.2537  31921.3867   1554.4906     77.8010      0.2991  31921.3867     10.3812      0.7403     15.7066      0.6688
  1593.0372     57.2445    311.2639      7.4085  31738.2813   1554.6096     77.7913      0.2976  31933.5938     10.3420      0.7741     15.7172      0.6715
  1593.1896     57.0525    311.2639      8.2530  31567.3828   1554.7478     77.7624      0.2991  31921.3867     10.3480      0.7523     15.7685      0.6725
  1593.3420     57.0525    313.2339      8.3799  31677.2461   1554.9342     77.7624      0.2972  31936.6445     10.3768      0.7450     15.7933      0.6678
  1593.4944     57.0525    313.2339      8.0887  31982.4219   1555.1428     77.8010      0.3000  31914.6055     10.4189      0.7611     15.7938      0.6630
  1593.6468     57.0525    313.2339      7.9374  32165.5273   1555.2555     77.7913      0.2991  31921.3867     10.3680      0.7385     15.7854      0.6635
  1593.7992     57.0525    313.2339      8.0016  31982.4219   1555.4077     77.7913      0.2991  31921.3867     10.3525      0.7248     15.8214      0.6675
  1593.9516     57.0525    313.2339      8.4374  31555.1758   1555.5745     77.7913      0.3000  31914.6055     10.3364      0.7455     15.8291      0.6676
  1594.1040     57.2049    313.2339      9.8146  31707.7637   1555.7712     77.7624      0.2991  31921.3867     10.3711      0.7533     15.8183      0.6661
  1594.2564     57.2049    312.2489     11.8068  31677.2461   1555.9019     77.8010      0.2991  31921.3867     10.4237      0.7755     15.8194      0.6661
  1594.4088     57.2049    312.2489     12.7831  31829.8340   1556.0608     77.7913      0.2980  31930.1055     10.3739      0.7109     15.7541      0.6677
  1594.5612     57.2049    312.2489     11.8299  31616.2109   1556.2468     77.8010      0.2991  31921.3867     10.3539      0.7331     15.7721      0.6717
  1594.7136     57.2049    312.2489      9.9137  30883.7891   1556.3876     77.7951      0.2978  31931.5586     10.3016      0.7244     15.6828      0.6713
  1594.8660     57.2049    312.2489      8.4127  31066.8945   1556.5375     77.7913      0.2991  31921.3867     10.3656      0.7061     15.6942      0.6675
  1595.0184     57.1896    313.2339      7.9352  31433.1055   1556.6888     77.7913      0.2976  31933.5938     10.3950      0.6983     15.6438      0.6674
  1595.1708     57.1896    313.2339      8.6024  31433.1055   1556.8590     77.8182      0.2991  31921.3867     10.4032      0.7064     15.6650      0.6699
  1595.3232     57.1896    313.2339     10.0750  31921.3867   1556.9930     77.8074      0.2980  31930.1055     10.3529      0.7236     15.6566      0.6709
  1595.4756     57.1896    315.2039     11.5089  31066.8945   1557.1499     77.7913      0.2991  31921.3867     10.3416      0.7423     15.5932      0.6707
  1595.6280     57.1896    315.2039     12.2062  29663.0859   1557.3162     77.7752      0.2991  31921.3867     10.4065      0.7444     15.5623      0.6731
  1595.7804     57.1896    314.2189     12.1396  31677.2461   1557.5026     77.8010      0.2991  31921.3867     10.4342      0.7585     15.6192      0.6724
  1595.9328     56.9001    313.2339     11.8015  33447.2656   1557.6384     77.8010      0.2980  31930.1055     10.4875      0.7509     15.5475      0.6712
  1596.0852     56.9001    313.2339     11.8395  33752.4414   1557.8075     77.8396      0.2982  31928.1680     10.4764      0.7372     15.5318      0.6706
  1596.2376     56.9001    314.2189     12.6673  28808.5938   1557.9672     77.8010      0.2976  31933.5938     10.4462      0.7409     15.5544      0.6730
  1596.3900     56.9001    314.2189     14.1038  31616.2109   1558.1417     77.7913      0.2991  31921.3867     10.4779      0.7383     15.6041      0.6724
