~Version Information
VERS.                            2.0: CWLS Log ASCII STANDARD - VERSION 2.0
WRAP.                             NO: One line per depth step
~Well Information
STRT.M                     2229.9168: START DEPTH
STOP.M                     2385.0600: STOP DEPTH
STEP.M                        0.1524: STEP
NULL.                      -999.2500: NULL VALUE
COMP.                               : COMPANY
WELL.                               : WELL
FLD.                                : FIELD
LOC.                                : LOCATION
DATE.                Wed Sep 11 12-22-31 2024: LOG DATE
SECT.                               : SECTION
TOWN.                               : TOWNSHIP
RANG.                               : RANGE
OS.                                 : OTHER SERVICES
PDAT.FT                             : PERMANENT DATUM
EEL.FT                              : ELEVATION
LMF.FT                              : LOG MEASURED FROM
DMF.FT                              : DRILLING MEASURED FROM
EKB.FT                              : KB
EDF.FT                              : DF
EGL.FT                              : GL
DATE1.                              : DATE1
RUN1.                               : RUN NUMBER
TDD1.FT                             : DEPTH DRILLER
TDL1.FT                             : DEPTH LOGGER
BLI1.FT                             : BOTTOM LOGGED INTERVAL
TLI1.FT                             : TOP LOG INTERVAL
CDD1.IN_FT                          : CASING DRILLER
CDL1.FT                             : CASING LOGGER
BS1.IN                              : BIT SIZE
DFT1.                               : TYPE FLUID IN HOLE
DFDV1.GM/C3_CP                      : DENSITY/VISCOSITY
DFPL1.C3                            : PH/FLUID LOSS
MSS1.                               : SOURCE OF SAMPLE
RMT1.OHHM_DEGF                      : RM@MEASURED TEMP
RMFT1.OHMM_DEGF                     : RMF@MEASURED TEMP
RMCT1.OHMM_DEGF                     : RMC@MEASURED TEMP
RMFS1.                              : SOURCE OF RMF/RMC
RMBT1.OHMM_DEGF                     : RM@BHT
TCS1.                               : TIME CIRCULATION STOPPED
TLOB1.                              : TIME LOGGER ON BOTTOM
BHT1.DEGF                           : MAXIMUM RECORDED TEMPERATURE
LUN1.                               : EQUIPMENT NUMBER
LUL1.                               : LOCATION
ENGI1.                              : RECORDED BY
WITN1.                              : WITNESSED BY
COMW.                               : Common Well Name
~Curve Information
DEPT.M                   0 000 00 00: Depth
LSPD.M/MIN                         0: Line Speed
LTEN.LB                            0: Surface Line Tension
GR.GAPI                            0: Gamma Ray
CCL.                               0: Casing Collar Locator
QP.PSI                             0: Quartz Pressure
TEMP.DEGC                          0: Downhole Temperature
CWH.                               0: Capacitance Water Holdup
CWHC.CPS                           0: CWH Counts
ILS.RPS                            0: Flowmeter
QPSG.                              0: Specific Gravity from QP
CFS.RPS                            0: Flowmeter
FDIDEN.G/CC                        0: FDI Fluid Density
~Parameter Information
~A  Depth       LSPD        LTEN         GR         CCL          QP         TEMP        CWH         CWHC        ILS         QPSG        CFS        FDIDEN   
# ...
  2380.4880     10.0310    607.7510     13.8477  31837.4629   2568.6677     82.2164      1.0757  25838.2168      0.4708      1.1323      0.5969      1.1683
  2380.6404     10.0767    606.7659     13.5904  31821.8027   2568.9111     82.2268      1.0756  25839.0469      0.4691      1.1233      0.6027      1.1671
  2380.7928     10.0706    610.7060   -999.2500  31784.0586   2569.1519     82.2230      1.0759  25836.7363      0.4670      1.2570      0.6050      1.1668
  2380.9452     10.2078    606.7659   -999.2500  31785.7539   2569.4031     82.2310      1.0760  25835.8223      0.4613   -999.2500      0.5979      1.1679
  2381.0976      9.9852    608.7360   -999.2500   -999.2500   2569.7576     82.2362      1.0760  25836.0742      0.4709   -999.2500      0.5940      1.1712
  2381.2500      9.9639    610.7060   -999.2500   -999.2500   -999.2500     82.2393      1.0761  25834.9609      0.4622   -999.2500      0.6003   -999.2500
  2381.4024      9.9639    607.7510   -999.2500   -999.2500   -999.2500     82.2495      1.0761  25835.3105      0.4626   -999.2500      0.6024   -999.2500
  2381.5548     10.1163    612.6760   -999.2500   -999.2500   -999.2500     82.2542      1.0764  25832.8418      0.4622   -999.2500      0.5987   -999.2500
  2381.7072     10.0554    609.7209   -999.2500   -999.2500   -999.2500     82.2561      1.0765  25832.2969      0.4656   -999.2500      0.5971   -999.2500
  2381.8596     10.1011    604.7959   -999.2500   -999.2500   -999.2500     82.2631      1.0766  25831.7910      0.4648   -999.2500      0.6013   -999.2500
  2382.0120     10.1468    609.7209   -999.2500   -999.2500   -999.2500     82.2664      1.0768  25829.6504   -999.2500   -999.2500      0.6031   -999.2500
  2382.1644     10.0157    604.7959   -999.2500   -999.2500   -999.2500     82.2664      1.0769  25829.2500   -999.2500   -999.2500      0.6002   -999.2500
  2382.3168      9.9243    611.6910   -999.2500   -999.2500   -999.2500     82.2735      1.0770  25828.2363   -999.2500   -999.2500      0.5943   -999.2500
  2382.4692      9.9639    610.7060   -999.2500   -999.2500   -999.2500     82.2826      1.0766  25831.3203   -999.2500   -999.2500      0.5911   -999.2500
  2382.6216     10.0096    607.7510   -999.2500   -999.2500   -999.2500     82.2877      1.0772  25826.5898   -999.2500   -999.2500      0.5938   -999.2500
  2382.7740      9.9852    615.6310   -999.2500   -999.2500   -999.2500     82.2898      1.0771  25827.8594   -999.2500   -999.2500      0.5938   -999.2500
  2382.9264     10.0858    609.7209   -999.2500   -999.2500   -999.2500     82.2948      1.0773  25825.9316   -999.2500   -999.2500      0.5861   -999.2500
  2383.0788     10.0858    605.7809   -999.2500   -999.2500   -999.2500     82.3024      1.0771  25827.8594   -999.2500   -999.2500      0.5890   -999.2500
  2383.2312     10.1376    609.7209   -999.2500   -999.2500   -999.2500     82.3090      1.0771  25827.1816   -999.2500   -999.2500      0.5999   -999.2500
  2383.3836     10.0310    608.7360   -999.2500   -999.2500   -999.2500     82.3156      1.0773  25825.6387   -999.2500   -999.2500      0.6042   -999.2500
  2383.5360      9.9944    610.7060   -999.2500   -999.2500   -999.2500     82.3232      1.0774  25825.3672   -999.2500   -999.2500      0.5954   -999.2500
  2383.6884     10.0401    607.7510   -999.2500   -999.2500   -999.2500     82.3296      1.0773  25826.2480   -999.2500   -999.2500      0.5945   -999.2500
  2383.8408      9.9639    605.7809   -999.2500   -999.2500   -999.2500     82.3289      1.0774  25825.3672   -999.2500   -999.2500      0.6057   -999.2500
  2383.9932      9.9334    615.6310   -999.2500   -999.2500   -999.2500     82.3374      1.0775  25824.0996   -999.2500   -999.2500      0.6036   -999.2500
  2384.1456     10.0919    610.7060   -999.2500   -999.2500   -999.2500     82.3421      1.0776  25823.2246   -999.2500   -999.2500      0.5897   -999.2500
  2384.2980     10.0554    604.7959   -999.2500   -999.2500   -999.2500     82.3445      1.0776  25823.8555   -999.2500   -999.2500      0.5867   -999.2500
  2384.4504     10.0005    609.7209   -999.2500   -999.2500   -999.2500     82.3553      1.0776  25823.4199   -999.2500   -999.2500      0.5939   -999.2500
  2384.6028     10.0858    608.7360   -999.2500   -999.2500   -999.2500     82.3619      1.0779  25821.4609   -999.2500   -999.2500      0.5934   -999.2500
  2384.7552     10.0858    607.7510   -999.2500   -999.2500   -999.2500   -999.2500      1.0778  25822.1973   -999.2500   -999.2500   -999.2500   -999.2500
  2384.9076     10.0614    611.6910   -999.2500   -999.2500   -999.2500   -999.2500   -999.2500   -999.2500   -999.2500   -999.2500   -999.2500   -999.2500
  2385.0600      9.9944    606.7659   -999.2500   -999.2500   -999.2500   -999.2500   -999.2500   -999.2500   -999.2500   -999.2500   -999.2500   -999.2500
