~Version Information
VERS.                            2.0: CWLS Log ASCII STANDARD - VERSION 2.0
WRAP.                             NO: One line per depth step
~Well Information
STRT.M                        3.6576: START DEPTH
STOP.M                     2390.0892: STOP DEPTH
STEP.M                        0.1524: STEP
NULL.                      -999.2500: NULL VALUE
COMP.                               : COMPANY
WELL.                               : WELL
FLD.                                : FIELD
LOC.                                : LOCATION
DATE.                Wed Sep 11 08-05-24 2024: LOG DATE
SECT.                               : SECTION
TOWN.                               : TOWNSHIP
RANG.                               : RANGE
OS.                                 : OTHER SERVICES
PDAT.FT                             : PERMANENT DATUM
EEL.FT                              : ELEVATION
LMF.FT                              : LOG MEASURED FROM
DMF.FT                              : DRILLING MEASURED FROM
EKB.FT                              : KB
EDF.FT                              : DF
EGL.FT                              : GL
DATE1.                              : DATE1
RUN1.                               : RUN NUMBER
TDD1.FT                             : DEPTH DRILLER
TDL1.FT                             : DEPTH LOGGER
BLI1.FT                             : BOTTOM LOGGED INTERVAL
TLI1.FT                             : TOP LOG INTERVAL
CDD1.IN_FT                          : CASING DRILLER
CDL1.FT                             : CASING LOGGER
BS1.IN                              : BIT SIZE
DFT1.                               : TYPE FLUID IN HOLE
DFDV1.GM/C3_CP                      : DENSITY/VISCOSITY
DFPL1.C3                            : PH/FLUID LOSS
MSS1.                               : SOURCE OF SAMPLE
RMT1.OHHM_DEGF                      : RM@MEASURED TEMP
RMFT1.OHMM_DEGF                     : RMF@MEASURED TEMP
RMCT1.OHMM_DEGF                     : RMC@MEASURED TEMP
RMFS1.                              : SOURCE OF RMF/RMC
RMBT1.OHMM_DEGF                     : RM@BHT
TCS1.                               : TIME CIRCULATION STOPPED
TLOB1.                              : TIME LOGGER ON BOTTOM
BHT1.DEGF                           : MAXIMUM RECORDED TEMPERATURE
LUN1.                               : EQUIPMENT NUMBER
LUL1.                               : LOCATION
ENGI1.                              : RECORDED BY
WITN1.                              : WITNESSED BY
COMW.                               : Common Well Name
~Curve Information
DEPT.M                   0 000 00 00: Depth
LSPD.M/MIN                         0: Line Speed
LTEN.LB                            0: Surface Line Tension
GR.GAPI                            0: Gamma Ray
CCL.                               0: Casing Collar Locator
QP.PSI                             0: Quartz Pressure
TEMP.DEGC                          0: Downhole Temperature
CWH.                               0: Capacitance Water Holdup
CWHC.CPS                           0: CWH Counts
ILS.RPS                            0: Flowmeter
QPSG.                              0: Specific Gravity from QP
CFS.RPS                            0: Flowmeter
FDIDEN.G/CC                        0: FDI Fluid Density
~Parameter Information
~A  Depth       LSPD        LTEN         GR         CCL          QP         TEMP        CWH         CWHC        ILS         QPSG        CFS        FDIDEN   
# ...
   954.6336     58.1802    206.8532      8.7060  31778.9707    926.5310     73.6863      0.2212  32531.7383     11.8961      0.6760     19.2398      0.4285
   954.7860     58.1802    206.8532      9.2345  31738.2813    926.7007     73.6541      0.2243  32507.3242     11.8804      0.6615     19.1815      0.4231
   954.9384     58.2016    206.8532     12.4484  31677.2461    926.8475     73.6863      0.2227  32519.5313     11.9297      0.6696     19.1021      0.4256
   955.0908     58.2016    206.8532     17.7592  31677.2461    926.9724     73.6863      0.2231  32516.4805     11.9161      0.6484     19.0701      0.4264
   955.2432     58.2016    206.8532     22.9139  31677.2461    927.1115     73.6725      0.2231  32516.4805     11.9133      0.6200     19.1008      0.4275
   955.3956     58.2016    205.8682     25.4471  31738.2813    927.2629     73.6863      0.2243  32507.3242     11.9424      0.6175     19.0416      0.4337
   955.5480     58.2016    205.8682     24.3289  31707.7637    927.3850     73.7056      0.2231  32516.4805     11.8816      0.6149     19.0545      0.4366
   955.7004     58.2016    205.8682     20.2040  31524.6582    927.5078     73.6970      0.2264  32491.0488     11.9280      0.6112     19.0642      0.4324
   955.8528     58.1650    205.8682     15.1316  31677.2461    927.6447     73.7346      0.2243  32507.3242     11.9645      0.6159     19.0883      0.4290
   956.0052     58.1650    205.8682     11.7705  32023.1113    927.7928     73.7105      0.2259  32495.1172     11.9033      0.6042     19.0621      0.4293
   956.1576     58.1650    205.8682     11.3764  31982.4219    927.9190     73.7056      0.2245  32505.5801     11.9027      0.6229     19.0673      0.4298
   956.3100     58.1650    205.8682     12.9270  31860.3516    928.0316     73.6863      0.2251  32501.2207     11.9330      0.6088     19.0721      0.4333
   956.4624     58.1650    205.8682     14.5609  31677.2461    928.1847     73.7056      0.2212  32531.7383     11.9246      0.6056     19.0679      0.4283
   956.6148     58.1650    206.8532     15.0177  31982.4219    928.3206     73.6863      0.2238  32511.3926     11.9401      0.6195     19.0483      0.4264
   956.7672     58.1650    206.8532     14.1026  31901.0410    928.4440     73.7185      0.2243  32507.3242     11.9271      0.5880     19.0661      0.4306
   956.9196     58.1406    207.8382     12.7925  31860.3516    928.5687     73.7056      0.2212  32531.7383     11.8814      0.5858     19.0100      0.4302
   957.0720     58.1406    206.8532     12.3199  31677.2461    928.6945     73.7056      0.2223  32523.0195     11.8584      0.5893     18.9602      0.4282
   957.2244     58.1406    206.8532     12.5838  31768.7988    928.8285     73.7185      0.2247  32504.6113     11.8739      0.6001     18.8479      0.4290
   957.3768     58.1406    207.8382     12.3691  31738.2813    928.9550     73.7185      0.2243  32507.3242     11.9075      0.6490     18.8145      0.4326
   957.5292     58.1406    207.8382     11.1099  31829.8340    929.0891     73.7056      0.2255  32497.8301     11.9525      0.6203     18.8437      0.4314
   957.6816     58.1406    206.8532      9.4550  31677.2461    929.2571     73.7346      0.2227  32519.5313     11.9183      0.6295     18.8613      0.4303
   957.8340     57.8297    205.8682      8.4089  31555.1758    929.3663     73.6863      0.2241  32508.8496     11.8813      0.6238     18.9183      0.4277
   957.9864     57.8297    205.8682      8.3301  31677.2461    929.5007     73.6970      0.2251  32501.2207     11.9263      0.6222     18.8953      0.4254
   958.1388     57.8297    205.8682      8.6640  31921.3867    929.6299     73.6863      0.2231  32516.4805     11.9441      0.6318     18.9357      0.4268
   958.2912     57.8297    204.8832      8.8281  31677.2461    929.7966     73.7443      0.2259  32495.1172     11.8686      0.6066     18.9379      0.4300
   958.4436     57.8297    204.8832      8.9113  32043.4570    929.9140     73.7346      0.2238  32511.3926     11.9163      0.6437     18.9816      0.4279
   958.5960     57.8297    206.8532      9.1318  31941.7324    930.0267     73.7346      0.2251  32501.2207     11.9232      0.6006     19.0192      0.4306
   958.7484     58.4850    206.8532      9.4255  32104.4922    930.1880     73.7056      0.2227  32519.5313     11.8857      0.5930     19.0470      0.4326
   958.9008     58.4850    206.8532      9.7987  31860.3516    930.3173     73.7235      0.2227  32519.5313     11.9201      0.6206     19.0302      0.4339
   959.0532     58.4850    206.8532     10.3602  31890.8691    930.4281     73.7346      0.2231  32516.4805     11.9413      0.5662     18.9300      0.4295
   959.2056     58.4850    206.8532     11.0593  31738.2813    930.5648     73.7056      0.2251  32501.2207     11.9128      0.5739     18.9668      0.4258
   959.3580     58.4850    207.8382     11.8691  31860.3516    930.6789     73.6970      0.2243  32507.3242     11.8355      0.5666     18.9328      0.4323
   959.5104     58.4850    206.8532     13.0041  31616.2109    930.8149     73.7277      0.2227  32519.5313     11.8974      0.5346     18.7643      0.4341
   959.6628     58.4850    206.8532     14.5525  31921.3867    930.9194     73.6863      0.2251  32501.2207     11.8850      0.6005     18.7419      0.4263
   959.8152     58.1497    206.8532     15.7898  31778.9707    931.0283     73.7346      0.2255  32497.8301     11.9146      0.6256     18.7341      0.4212
   959.9676     58.1497    206.8532     15.3312  31697.5918    931.1995     73.7056      0.2231  32516.4805     11.8977      0.6477     18.7250      0.4252
   960.1200     58.1497    206.8532     12.6344  31555.1758    931.3572     73.7346      0.2227  32519.5313     11.8928      0.6827     18.6778      0.4277
   960.2724     58.1497    205.8682      9.0634  31646.7285    931.4809     73.7346      0.2223  32523.0195     11.9273      0.6916     18.8237      0.4279
   960.4248     58.1497    205.8682      6.8279  31799.3164    931.6202     73.6863      0.2259  32495.1172     11.9067      0.6126     18.9549      0.4283
   960.5772     58.1497    205.8682      6.9263  31982.4219    931.7991     73.7443      0.2238  32511.3926     11.8593      0.6231     18.9230      0.4278
   960.7296     57.7383    207.8382      8.4794  31921.3867    931.8884     73.7346      0.2221  32524.9570     11.8623      0.6139     18.9948      0.4351
   960.8820     57.7383    207.8382      9.9058  31860.3516    932.0211     73.7056      0.2251  32501.2207     11.8604      0.6180     19.0040      0.4399
   961.0344     57.7383    207.8382     10.2870  32043.4570    932.1524     73.7443      0.2243  32507.3242     11.8756      0.6317     18.9684      0.4440
   961.1868     57.7383    207.8382      9.8634  31738.2813    932.3350     73.7507      0.2245  32505.5801     11.8427      0.6325     18.9105      0.4404
   961.3392     57.7383    207.8382      9.5527  31768.7988    932.4360     73.7185      0.2256  32496.8613     11.8599      0.6297     18.9261      0.4427
   961.4916     57.7383    206.8532      9.7407  31738.2813    932.5695     73.7346      0.2243  32507.3242     11.8233      0.6172     18.8422      0.4409
   961.6440     57.7383    206.8532     10.0781  31860.3516    932.6984     73.7443      0.2245  32505.5801     11.8114      0.6334     18.8611      0.4315
   961.7964     58.7807    206.8532     10.5223  32165.5273    932.8701     73.7185      0.2243  32507.3242     11.7667      0.6061     18.8502      0.4271
   961.9488     58.7807    206.8532     11.4683  31707.7637    932.9852     73.7277      0.2268  32488.1426     11.7313      0.6158     18.8940      0.4276
   962.1012     58.7807    206.8532     13.0306  31616.2109    933.0950     73.7829      0.2231  32516.4805     11.8096      0.5723     18.9232      0.4351
   962.2536     58.7807    206.8532     14.9065  32012.9395    933.2323     73.7443      0.2259  32495.1172     11.8101      0.6011     18.9468      0.4370
   962.4060     58.7807    206.8532     16.4396  31799.3164    933.3662     73.7829      0.2256  32496.8613     11.9074      0.6215     18.9646      0.4273
