~Version Information
VERS.                            2.0: CWLS Log ASCII STANDARD - VERSION 2.0
WRAP.                             NO: One line per depth step
~Well Information
STRT.M                        3.6576: START DEPTH
STOP.M                     2390.0892: STOP DEPTH
STEP.M                        0.1524: STEP
NULL.                      -999.2500: NULL VALUE
COMP.                               : COMPANY
WELL.                               : WELL
FLD.                                : FIELD
LOC.                                : LOCATION
DATE.                Wed Sep 11 08-05-24 2024: LOG DATE
SECT.                               : SECTION
TOWN.                               : TOWNSHIP
RANG.                               : RANGE
OS.                                 : OTHER SERVICES
PDAT.FT                             : PERMANENT DATUM
EEL.FT                              : ELEVATION
LMF.FT                              : LOG MEASURED FROM
DMF.FT                              : DRILLING MEASURED FROM
EKB.FT                              : KB
EDF.FT                              : DF
EGL.FT                              : GL
DATE1.                              : DATE1
RUN1.                               : RUN NUMBER
TDD1.FT                             : DEPTH DRILLER
TDL1.FT                             : DEPTH LOGGER
BLI1.FT                             : BOTTOM LOGGED INTERVAL
TLI1.FT                             : TOP LOG INTERVAL
CDD1.IN_FT                          : CASING DRILLER
CDL1.FT                             : CASING LOGGER
BS1.IN                              : BIT SIZE
DFT1.                               : TYPE FLUID IN HOLE
DFDV1.GM/C3_CP                      : DENSITY/VISCOSITY
DFPL1.C3                            : PH/FLUID LOSS
MSS1.                               : SOURCE OF SAMPLE
RMT1.OHHM_DEGF                      : RM@MEASURED TEMP
RMFT1.OHMM_DEGF                     : RMF@MEASURED TEMP
RMCT1.OHMM_DEGF                     : RMC@MEASURED TEMP
RMFS1.                              : SOURCE OF RMF/RMC
RMBT1.OHMM_DEGF                     : RM@BHT
TCS1.                               : TIME CIRCULATION STOPPED
TLOB1.                              : TIME LOGGER ON BOTTOM
BHT1.DEGF                           : MAXIMUM RECORDED TEMPERATURE
LUN1.                               : EQUIPMENT NUMBER
LUL1.                               : LOCATION
ENGI1.                              : RECORDED BY
WITN1.                              : WITNESSED BY
COMW.                               : Common Well Name
~Curve Information
DEPT.M                   0 000 00 00: Depth
LSPD.M/MIN                         0: Line Speed
LTEN.LB                            0: Surface Line Tension
GR.GAPI                            0: Gamma Ray
CCL.                               0: Casing Collar Locator
QP.PSI                             0: Quartz Pressure
TEMP.DEGC                          0: Downhole Temperature
CWH.                               0: Capacitance Water Holdup
CWHC.CPS                           0: CWH Counts
ILS.RPS                            0: Flowmeter
QPSG.                              0: Specific Gravity from QP
CFS.RPS                            0: Flowmeter
FDIDEN.G/CC                        0: FDI Fluid Density
~Parameter Information
~A  Depth       LSPD        LTEN         GR         CCL          QP         TEMP        CWH         CWHC        ILS         QPSG        CFS        FDIDEN   
# ...
  1113.1296     58.2107    233.4484     13.9442  31860.3516   1069.9207     74.8261      0.2468  32331.1934     11.6388      0.6192     17.8415      0.4984
  1113.2820     58.8813    235.4184     13.3490  31555.1758   1070.0995     74.8261      0.2461  32336.4258     11.5624      0.6603     17.8124      0.5033
  1113.4344     58.8813    235.4184     11.8878  31890.8691   1070.1991     74.8454      0.2457  32339.9141     11.5785      0.7196     17.8709      0.4961
  1113.5868     58.8813    234.4334     10.0166  32165.5273   1070.3568     74.8261      0.2446  32348.6328     11.6549      0.6140     17.8559      0.4827
  1113.7392     58.8813    234.4334      8.3020  31616.2109   1070.5446     74.8647      0.2446  32348.6328     11.6300      0.6603     17.8188      0.4795
  1113.8916     58.8813    235.4184      7.2616  31616.2109   1070.6318     74.8389      0.2461  32336.4258     11.5817      0.6215     17.8012      0.4843
  1114.0440     58.8813    235.4184      6.8760  31860.3516   1070.7716     74.8454      0.2446  32348.6328     11.5661      0.6323     17.8270      0.4921
  1114.1964     58.4911    235.4184      6.5924  32135.0098   1070.8956     74.8647      0.2465  32333.3750     11.5989      0.6517     17.7549      0.4928
  1114.3488     58.4911    234.4334      6.1344  32104.4922   1071.0928     74.8561      0.2477  32324.2188     11.5913      0.6578     17.6953      0.4892
  1114.5012     58.4911    235.4184      5.6579  31799.3164   1071.1969     74.8454      0.2485  32318.1152     11.5633      0.6720     17.7028      0.4911
  1114.6536     58.4911    235.4184      5.4364  31707.7637   1071.3419     74.8454      0.2446  32348.6328     11.5511      0.6550     17.7037      0.4912
  1114.8060     58.4911    234.4334      5.8227  31555.1758   1071.4783     74.8316      0.2465  32333.3750     11.5484      0.6513     17.6755      0.4925
  1114.9584     58.4911    235.4184      6.7097  31799.3164   1071.6606     74.8261      0.2461  32336.4258     11.4700      0.6325     17.6310      0.4939
  1115.1108     57.8754    235.4184      7.1943  31982.4219   1071.7616     74.8454      0.2446  32348.6328     11.4802      0.6657     17.6704      0.4956
  1115.2632     57.8754    235.4184      6.7770  31860.3516   1071.8903     74.8868      0.2465  32333.3750     11.5302      0.6444     17.6391      0.4983
  1115.4156     57.8754    235.4184      6.2346  31555.1758   1072.0554     74.8647      0.2465  32333.3750     11.5029      0.6627     17.6851      0.4964
  1115.5680     57.8754    236.4034      6.3845  31941.7324   1072.2194     74.8647      0.2490  32313.7559     11.4773      0.6647     17.6582      0.4913
  1115.7204     57.8754    236.4034      6.9836  31799.3164   1072.3362     74.8937      0.2490  32313.7559     11.4781      0.6708     17.7132      0.4939
  1115.8728     57.8754    236.4034      7.3984  32104.4922   1072.4666     74.8937      0.2461  32336.4258     11.4772      0.6341     17.7293      0.4965
  1116.0252     57.8754    236.4034      7.2217  31860.3516   1072.6370     74.8647      0.2461  32336.4258     11.4763      0.6658     17.7178      0.4947
  1116.1776     57.9211    236.4034      6.2726  31555.1758   1072.7692     74.8647      0.2458  32339.2422     11.4589      0.6391     17.7241      0.5016
  1116.3300     57.9211    235.4184      4.9209  31982.4219   1072.9135     74.8776      0.2446  32348.6328     11.4547      0.6381     17.6736      0.5021
  1116.4824     57.9211    235.4184      3.9900  32226.5625   1073.0206     74.8454      0.2461  32336.4258     11.4518      0.6775     17.7110      0.4934
  1116.6348     57.9211    235.4184      3.9228  32043.4570   1073.1902     74.8454      0.2480  32321.5059     11.4760      0.6301     17.7641      0.4921
  1116.7872     57.9211    235.4184      4.4760  31677.2461   1073.3566     74.8647      0.2485  32318.1152     11.4143      0.7014     17.7886      0.4938
  1116.9396     57.9211    235.4184      5.2480  32012.9395   1073.4597     74.8937      0.2446  32348.6328     11.4350      0.6827     17.6775      0.4894
  1117.0920     58.1863    235.4184      6.0519  31433.1055   1073.6288     74.8647      0.2468  32331.1934     11.3977      0.6271     17.6880      0.4919
  1117.2444     58.1863    236.4034      6.8292  31646.7285   1073.7821     74.8695      0.2446  32348.6328     11.3897      0.6568     17.7135      0.4934
  1117.3968     58.1863    236.4034      7.5162  32043.4570   1073.9003     74.8454      0.2465  32333.3750     11.4098      0.6295     17.6385      0.4926
  1117.5492     58.1863    236.4034      8.0701  31860.3516   1074.0292     74.8647      0.2468  32331.1934     11.4339      0.6303     17.6375      0.4919
  1117.7016     58.1863    236.4034      8.7053  31677.2461   1074.1746     74.8647      0.2465  32333.3750     11.4350      0.6364     17.7570      0.4979
  1117.8540     58.1863    236.4034      9.9187  31860.3516   1074.3286     74.8905      0.2461  32336.4258     11.4909      0.6543     17.7843      0.5004
  1118.0064     58.1863    235.4184     11.9083  31616.2109   1074.4520     74.8937      0.2446  32348.6328     11.4909      0.6564     17.8920      0.5030
  1118.1588     58.1711    236.4034     14.0996  31311.0352   1074.5964     74.8647      0.2465  32333.3750     11.4795      0.6646     17.8957      0.5065
  1118.3112     58.1711    236.4034     15.5252  31921.3867   1074.7437     74.8647      0.2446  32348.6328     11.5414      0.6755     17.8976      0.5066
  1118.4636     58.1711    235.4184     15.8006  31921.3867   1074.9048     74.8937      0.2446  32348.6328     11.5928      0.6809     17.8244      0.4992
  1118.6160     58.1711    235.4184     15.4697  31982.4219   1075.0377     74.8937      0.2465  32333.3750     11.5915      0.6975     17.7809      0.4986
  1118.7684     58.1711    236.4034     15.0313  31738.2813   1075.1868     74.8990      0.2465  32333.3750     11.6181      0.6433     17.7686      0.4957
  1118.9208     58.1711    236.4034     14.3439  32165.5273   1075.3484     74.8647      0.2465  32333.3750     11.6045      0.6409     17.7840      0.4949
  1119.0732     57.7931    236.4034     13.6813  31738.2813   1075.4625     74.8937      0.2485  32318.1152     11.6386      0.6174     17.8349      0.5005
  1119.2256     57.7931    236.4034     13.9893  35461.4258   1075.5934     74.8454      0.2485  32318.1152     11.6313      0.6389     17.8466      0.4988
  1119.3780     57.7931    237.3884     15.1705  32104.4922   1075.7220     74.8561      0.2430  32360.8398     11.5801      0.6971     17.8564      0.4976
  1119.5304     57.7931    237.3884     15.8484  31677.2461   1075.9023     74.8647      0.2485  32318.1152     11.5691      0.6684     17.8046      0.4984
  1119.6828     57.7931    237.3884     15.5097  31951.9043   1076.0669     74.8454      0.2446  32348.6328     11.5659      0.6878     17.7638      0.4972
  1119.8352     57.7931    237.3884     14.9522  31555.1758   1076.1729     74.8937      0.2468  32331.1934     11.5013      0.6967     17.7490      0.4952
  1119.9876     58.8355    237.3884     14.3991  31372.0703   1076.3184     74.8647      0.2485  32318.1152     11.5071      0.6237     17.6007      0.4974
  1120.1400     58.8355    237.3884     13.2139  32165.5273   1076.5063     74.8937      0.2446  32348.6328     11.5082      0.6767     17.7136      0.4981
  1120.2924     58.8355    237.3884     11.4473  31616.2109   1076.6077     74.8937      0.2455  32341.4531     11.4399      0.7017     17.7283      0.4981
  1120.4448     58.8355    237.3884     10.0347  31962.0762   1076.7595     74.8937      0.2465  32333.3750     11.3968      0.6182     17.7967      0.4989
  1120.5972     58.8355    236.4034      9.4961  31982.4219   1076.9268     74.8776      0.2485  32318.1152     11.3936      0.6495     17.8281      0.5008
  1120.7496     58.8355    236.4034      9.2729  31433.1055   1077.0424     74.9033      0.2460  32337.5352     11.4418      0.6236     17.8284      0.4990
  1120.9020     58.8355    236.4034      8.3317  32043.4570   1077.1708     74.8937      0.2465  32333.3750     11.4300      0.5988     17.8104      0.5004
