~Version Information
VERS.                            2.0: CWLS Log ASCII STANDARD - VERSION 2.0
WRAP.                             NO: One line per depth step
~Well Information
STRT.M                        3.6576: START DEPTH
STOP.M                     2390.0892: STOP DEPTH
STEP.M                        0.1524: STEP
NULL.                      -999.2500: NULL VALUE
COMP.                               : COMPANY
WELL.                               : WELL
FLD.                                : FIELD
LOC.                                : LOCATION
DATE.                Wed Sep 11 08-05-24 2024: LOG DATE
SECT.                               : SECTION
TOWN.                               : TOWNSHIP
RANG.                               : RANGE
OS.                                 : OTHER SERVICES
PDAT.FT                             : PERMANENT DATUM
EEL.FT                              : ELEVATION
LMF.FT                              : LOG MEASURED FROM
DMF.FT                              : DRILLING MEASURED FROM
EKB.FT                              : KB
EDF.FT                              : DF
EGL.FT                              : GL
DATE1.                              : DATE1
RUN1.                               : RUN NUMBER
TDD1.FT                             : DEPTH DRILLER
TDL1.FT                             : DEPTH LOGGER
BLI1.FT                             : BOTTOM LOGGED INTERVAL
TLI1.FT                             : TOP LOG INTERVAL
CDD1.IN_FT                          : CASING DRILLER
CDL1.FT                             : CASING LOGGER
BS1.IN                              : BIT SIZE
DFT1.                               : TYPE FLUID IN HOLE
DFDV1.GM/C3_CP                      : DENSITY/VISCOSITY
DFPL1.C3                            : PH/FLUID LOSS
MSS1.                               : SOURCE OF SAMPLE
RMT1.OHHM_DEGF                      : RM@MEASURED TEMP
RMFT1.OHMM_DEGF                     : RMF@MEASURED TEMP
RMCT1.OHMM_DEGF                     : RMC@MEASURED TEMP
RMFS1.                              : SOURCE OF RMF/RMC
RMBT1.OHMM_DEGF                     : RM@BHT
TCS1.                               : TIME CIRCULATION STOPPED
TLOB1.                              : TIME LOGGER ON BOTTOM
BHT1.DEGF                           : MAXIMUM RECORDED TEMPERATURE
LUN1.                               : EQUIPMENT NUMBER
LUL1.                               : LOCATION
ENGI1.                              : RECORDED BY
WITN1.                              : WITNESSED BY
COMW.                               : Common Well Name
~Curve Information
DEPT.M                   0 000 00 00: Depth
LSPD.M/MIN                         0: Line Speed
LTEN.LB                            0: Surface Line Tension
GR.GAPI                            0: Gamma Ray
CCL.                               0: Casing Collar Locator
QP.PSI                             0: Quartz Pressure
TEMP.DEGC                          0: Downhole Temperature
CWH.                               0: Capacitance Water Holdup
CWHC.CPS                           0: CWH Counts
ILS.RPS                            0: Flowmeter
QPSG.                              0: Specific Gravity from QP
CFS.RPS                            0: Flowmeter
FDIDEN.G/CC                        0: FDI Fluid Density
~Parameter Information
~A  Depth       LSPD        LTEN         GR         CCL          QP         TEMP        CWH         CWHC        ILS         QPSG        CFS        FDIDEN   
     3.6576      9.1928    123.1276      6.7043  56823.7305    269.0659     49.3867      0.3049  31876.4141      0.0276      0.4368      1.6431      0.7136
     3.8100      9.2172    125.0977      8.5272  32069.6152    269.2156     49.5343      0.2925  31973.0313      0.0276      0.8064      1.5866      0.6271
     3.9624      0.9723    110.3226      9.9190  32053.6289    269.4306     49.9054      0.2802  32069.2266      0.0256      0.8657      1.7046      0.5067
     4.1148      0.9723    116.2326     10.2336  30901.2285    269.7216     50.6407      0.2556  32261.8281      0.0057      0.7413      1.8217      0.4108
     4.2672      4.3464    118.2026      9.6582  31524.6582    269.8165     51.4193      0.2377  32402.2246     -0.1995      0.6968      1.8316      0.3492
     4.4196      7.7480    124.1127      8.7164  33172.6094    269.8583     52.4731      0.1974  32717.7500      0.7662      0.6717      1.6841      0.3008
     4.5720      7.7480    119.1876      7.7547 456570.0938    270.0347     53.7053      0.1852  32813.8203      1.9524      0.9036      1.4541      0.2580
     4.7244     11.2806    120.1726      6.8280  31848.1445    270.3040     55.1042      0.1604  33007.8125      2.9475      0.8388      1.1908      0.2233
     4.8768     13.9141    121.1576      5.7613  31139.0273    270.5999     56.3097      0.1392  33174.2148      4.2047      0.0944      0.8092      0.2070
     5.0292     13.9141    119.1876      4.5629  31636.5566    270.5855     57.2733      0.1405  33163.5352      5.1747     -0.5167      0.4808      0.2011
     5.1816     13.9812    118.2026      3.6961  33484.8242    270.1165     58.0702      0.1309  33239.1914      5.9543     -0.5450      5.3637      0.1858
     5.3340     14.0818    122.1426      3.5972  23722.3301    269.8560     59.5815      0.1137  33374.0234      6.7064     -0.4808     10.8741      0.1568
     5.4864     14.0818    123.1276      4.1338  31768.7988    270.1273     61.5553      0.0873  33580.6914      6.8095      0.2548     15.4708      0.1642
     5.6388     14.0970    120.1726      4.7847  31199.1367    270.1686     62.7921      0.0857  33593.1563      7.2438      0.0466     20.2708      0.1768
     5.7912     13.8745    118.2026      5.1542  32211.3047    270.3375     63.4603      0.0925  33539.5625     11.8227     -0.4588     25.4706      0.1809
     5.9436     13.8745    119.1876      5.1020  31901.0410    269.8964     63.9084      0.0938  33529.6641     13.4926     -0.6747     28.2736      0.1851
     6.0960     13.9050    118.2026      4.7106  32019.0430    269.7296     64.1927      0.0921  33542.9414     15.0395     -1.1339     26.8284      0.1833
     6.2484     14.0360    118.2026      4.2777  31882.5469    269.5836     64.3576      0.0924  33540.6133     16.8203     -1.0980     28.0875      0.1706
     6.4008     14.0360    118.2026      3.9900  31555.1758    269.3543     64.4727      0.0980  33496.7539     17.5306     -0.1052     30.7775      0.1578
     6.5532     13.9964    115.2476      3.7332  33063.6172    268.9445     64.5481      0.0887  33569.3359     18.0448      2.4570     39.0567      0.1514
     6.7056     14.1336    113.2776      3.3757  25197.3477    269.6384     64.5973      0.0859  33591.2461     18.7083      2.7818     45.2957      0.1803
     6.8580     14.1336    110.3226      2.9363  32714.8438    271.7138     64.6357      0.0833  33611.9180     19.1217      3.2016     49.0044      0.1840
     7.0104     14.1336    111.3076      2.5120  32250.9766    271.7661     64.7035      0.0876  33577.8516     19.7853      2.7192     51.6193      0.1680
     7.1628     13.9964    111.3076      2.2496  31589.0840    271.7202     64.7296      0.0894  33563.6602     20.6778      0.4694     53.5972      0.1694
     7.3152     13.9964    108.3525      2.2969  31860.3516    271.9959     64.7440      0.0915  33547.9727     21.6072      0.6034     51.4681      0.1684
     7.4676     13.9050    105.3975      2.6265  32177.7344    272.1208     64.7508      0.0896  33562.7383     23.1734      0.6725     46.0663      0.1741
     7.6200     13.9050    101.4575      2.9794  32012.9395    272.2893     64.7619      0.0892  33565.7461     24.4437      0.3724     45.7600      0.1775
     7.7724     13.9446    101.4575      3.1989  31809.4883    272.3033     64.7738      0.0896  33562.3594     21.5691      0.5618     45.4716      0.1768
     7.9248     14.0269    102.4425      3.5907  32012.9395    272.3188     64.7836      0.0900  33559.4375     21.6259      0.1866     45.4332      0.1783
     8.0772     14.0269     99.4875      4.6293  31677.2461    272.6079     64.7977      0.0912  33550.0625     21.7351      0.6950     45.4162      0.1812
     8.2296     13.9355     99.4875      6.1837  31835.9375    272.4511     64.8052      0.0914  33548.4961     21.8363      0.6515     45.3303      0.1819
     8.3820     14.1427     99.4875      7.3397  31494.1406    272.9059     64.8132      0.0908  33553.0586     21.8308      0.6431     45.1803      0.1832
     8.5344     14.1427     98.5025      7.3152  31787.1094    272.8836     64.8154      0.0915  33547.4258     21.8449      0.8589     45.2018      0.1846
     8.6868     14.1336     97.5175      6.3401  31665.0391    273.1654     64.8194      0.0923  33540.9492     21.9079      0.4932     45.4549      0.1835
     8.8392     13.9964     97.5175      5.2723  32073.9746    273.1957     64.8274      0.0919  33544.3672     21.9344      0.5912     45.4783      0.1811
     8.9916     13.9964     96.5325      4.6563  31933.5938    273.3335     64.8308      0.0911  33550.5547     21.9761      0.7039     45.5995      0.1810
     9.1440     14.0818     99.4875      4.5072  31640.6250    273.3961     64.8366      0.0918  33545.6016     22.0206      0.9245     45.8959      0.1808
     9.2964     14.0360     99.4875      4.5608  31765.4082    273.7757     64.8415      0.0923  33541.4336     22.0584      1.1623     46.0091      0.1772
     9.4488     14.0360     97.5175      4.4855  32104.4922    273.9973     64.8402      0.0929  33536.3438     22.0771      1.2590     46.0576      0.1795
     9.6012     14.0208     96.5325      4.2276  31602.6484    274.3412     64.8459      0.0920  33543.7852     21.9742      0.8161     46.0836      0.1797
     9.7536     13.9964     96.5325      4.1688  31534.8301    274.4877     64.8445      0.0914  33548.4961     21.8966      0.5775     46.2539      0.1782
     9.9060     13.9964     99.4875      4.6737  31860.3516    274.4833     64.8526      0.0919  33544.3672     21.7785      0.1184     45.9788      0.1801
    10.0584     14.1427     99.4875      5.5607  32196.0449    274.4980     64.8626      0.0927  33538.1094     21.7157     -0.2888     45.8502      0.1760
    10.2108     14.0208     97.5175      6.2517  31628.4180    274.4438     64.8568      0.0923  33541.4336     21.6766      0.3808     45.9216      0.1750
    10.3632     14.0208     96.5325      6.2977  31877.7910    274.2373     64.8681      0.0920  33543.6367     21.6008      0.3495     45.8845      0.1803
    10.5156     13.9507     98.5025      5.6290  31936.6445    274.8134     64.8616      0.0924  33540.6133     21.4772      0.5297     46.1209      0.1817
    10.6680     13.9507     96.5325      4.5668  31890.8691    274.8010     64.8740      0.0930  33535.6602     21.3412      0.8262     46.1036      0.1782
    10.8204     14.7828     94.5625      3.6307  31669.6172    274.9031     64.8860      0.0925  33539.8711     21.2449      0.2325     46.1410      0.1750
    10.9728     14.7828     93.5774      3.1454  31738.2813    274.9536     64.8865      0.0919  33544.0781     21.0951      0.2551     46.2439      0.1775
    11.1252     15.5113     95.5475      3.1094  31860.3516    275.0150     64.8843      0.0928  33537.6875     21.0395     -0.2632     46.2002      0.1797
    11.2776     15.5113     95.5475      3.3713  31684.0273    275.0222     64.8834      0.0924  33540.6133     20.9217     -0.2941     46.0263      0.1745
    11.4300     16.3495     95.5475      3.7793  31811.5234    274.6749     64.8967      0.0926  33538.8203     20.8385     -0.3793     46.0613      0.1738
