~Version Information
VERS.                            2.0: CWLS Log ASCII STANDARD - VERSION 2.0
WRAP.                             NO: One line per depth step
~Well Information
STRT.M                        3.6576: START DEPTH
STOP.M                     2390.0892: STOP DEPTH
STEP.M                        0.1524: STEP
NULL.                      -999.2500: NULL VALUE
COMP.                               : COMPANY
WELL.                               : WELL
FLD.                                : FIELD
LOC.                                : LOCATION
DATE.                Wed Sep 11 08-05-24 2024: LOG DATE
SECT.                               : SECTION
TOWN.                               : TOWNSHIP
RANG.                               : RANGE
OS.                                 : OTHER SERVICES
PDAT.FT                             : PERMANENT DATUM
EEL.FT                              : ELEVATION
LMF.FT                              : LOG MEASURED FROM
DMF.FT                              : DRILLING MEASURED FROM
EKB.FT                              : KB
EDF.FT                              : DF
EGL.FT                              : GL
DATE1.                              : DATE1
RUN1.                               : RUN NUMBER
TDD1.FT                             : DEPTH DRILLER
TDL1.FT                             : DEPTH LOGGER
BLI1.FT                             : BOTTOM LOGGED INTERVAL
TLI1.FT                             : TOP LOG INTERVAL
CDD1.IN_FT                          : CASING DRILLER
CDL1.FT                             : CASING LOGGER
BS1.IN                              : BIT SIZE
DFT1.                               : TYPE FLUID IN HOLE
DFDV1.GM/C3_CP                      : DENSITY/VISCOSITY
DFPL1.C3                            : PH/FLUID LOSS
MSS1.                               : SOURCE OF SAMPLE
RMT1.OHHM_DEGF                      : RM@MEASURED TEMP
RMFT1.OHMM_DEGF                     : RMF@MEASURED TEMP
RMCT1.OHMM_DEGF                     : RMC@MEASURED TEMP
RMFS1.                              : SOURCE OF RMF/RMC
RMBT1.OHMM_DEGF                     : RM@BHT
TCS1.                               : TIME CIRCULATION STOPPED
TLOB1.                              : TIME LOGGER ON BOTTOM
BHT1.DEGF                           : MAXIMUM RECORDED TEMPERATURE
LUN1.                               : EQUIPMENT NUMBER
LUL1.                               : LOCATION
ENGI1.                              : RECORDED BY
WITN1.                              : WITNESSED BY
COMW.                               : Common Well Name
~Curve Information
DEPT.M                   0 000 00 00: Depth
LSPD.M/MIN                         0: Line Speed
LTEN.LB                            0: Surface Line Tension
GR.GAPI                            0: Gamma Ray
CCL.                               0: Casing Collar Locator
QP.PSI                             0: Quartz Pressure
TEMP.DEGC                          0: Downhole Temperature
CWH.                               0: Capacitance Water Holdup
CWHC.CPS                           0: CWH Counts
ILS.RPS                            0: Flowmeter
QPSG.                              0: Specific Gravity from QP
CFS.RPS                            0: Flowmeter
FDIDEN.G/CC                        0: FDI Fluid Density
~Parameter Information
~A  Depth       LSPD        LTEN         GR         CCL          QP         TEMP        CWH         CWHC        ILS         QPSG        CFS        FDIDEN   
# ...
   479.1456     59.0032    119.1876      6.1763  31799.3164    557.6234     69.8421      0.1635  32983.3984     15.6086      0.5600     25.2145      0.2720
   479.2980     59.0032    121.1576      5.8407  31677.2461    557.7056     69.8228      0.1608  33004.7617     15.6492      0.5019     25.2413      0.2729
   479.4504     59.0032    122.1426      6.3056  31860.3516    557.8473     69.8034      0.1620  32995.6055     15.6857      0.4681     25.3217      0.2673
   479.6028     59.0032    122.1426      7.0560  31799.3164    557.9540     69.8366      0.1615  32999.6758     15.7308      0.4845     25.3424      0.2658
   479.7552     58.8721    121.1576      7.2802  31799.3164    558.0292     69.8228      0.1627  32989.5000     15.7094      0.4337     25.3091      0.2695
   479.9076     58.8721    121.1576      6.9846  31646.7285    558.1256     69.8550      0.1635  32983.3984     15.6613      0.4616     25.3451      0.2712
   480.0600     58.8721    120.1726      6.8973  31311.0352    558.2233     69.8034      0.1615  32999.6758     15.6986      0.4972     25.3968      0.2704
   480.2124     58.8721    120.1726      7.2245  31524.6582    558.3542     69.8228      0.1620  32995.6055     15.6548      0.4863     25.4353      0.2650
   480.3648     58.8721    120.1726      7.2726  31311.0352    558.4603     69.8228      0.1615  32999.6758     15.6375      0.4888     25.5654      0.2635
   480.5172     58.8721    122.1426      6.8356  31677.2461    558.5472     69.8421      0.1622  32993.8633     15.7151      0.4225     25.6145      0.2695
   480.6696     58.7502    121.1576      6.6778  31982.4219    558.6471     69.8228      0.1620  32995.6055     15.7540      0.3725     25.5718      0.2684
   480.8220     58.7502    121.1576      7.0194  31677.2461    558.7206     69.8228      0.1627  32989.5000     15.6552      0.4106     25.4786      0.2684
   480.9744     58.7502    121.1576      7.2433  31585.6934    558.7833     69.8228      0.1644  32976.4219     15.6082      0.4900     25.3715      0.2676
   481.1268     58.7502    121.1576      7.1866  34342.4492    558.9033     69.8421      0.1635  32983.3984     15.6199      0.5624     25.2527      0.2661
   481.2792     58.7502    122.1426      7.1917  32104.4922    559.0719     69.8228      0.1620  32995.6055     15.6036      0.6132     25.1751      0.2657
   481.4316     58.7502    123.1276      7.4235  31982.4219    559.2082     69.8711      0.1642  32977.7656     15.6175      0.6042     25.1917      0.2688
   481.5840     58.7502    123.1276      8.0999  31890.8691    559.3149     69.8228      0.1589  33020.0195     15.5552      0.5311     25.2793      0.2684
   481.7364     59.2226    121.1576      9.3463  31555.1758    559.4271     69.8421      0.1635  32983.3984     15.5197      0.4613     25.3518      0.2643
   481.8888     59.2226    119.1876     10.3379  31799.3164    559.5323     69.8711      0.1615  32999.6758     15.5809      0.4390     25.3819      0.2622
   482.0412     59.2226    119.1876     10.0213  31921.3867    559.6082     69.8228      0.1627  32989.5000     15.6429      0.4417     25.4313      0.2657
   482.1936     59.2226    118.2026      8.8598  31860.3516    559.6956     69.8421      0.1615  32999.6758     15.7508      0.4063     25.4781      0.2664
   482.3460     59.2226    118.2026      8.2009  31921.3867    559.8101     69.8711      0.1615  32999.6758     15.8313      0.4196     25.4667      0.2654
   482.4984     59.2226    120.1726      8.3459  31494.1406    559.8846     69.8550      0.1647  32974.2422     15.7867      0.3895     25.4065      0.2700
   482.6508     59.2226    120.1726      8.7114  31860.3516    559.9719     69.8335      0.1640  32979.3281     15.7255      0.4503     25.2584      0.2721
   482.8032     59.0337    120.1726      9.0161  32287.5977    560.0333     69.8807      0.1615  32999.6758     15.8317      0.5523     25.1427      0.2684
   482.9556     59.0337    119.1876      9.2958  31921.3867    560.2004     69.8421      0.1620  32995.6055     15.8347      0.6006     24.9985      0.2641
   483.1080     59.0337    121.1576      9.4635  31890.8691    560.3635     69.8469      0.1647  32974.2422     15.7540      0.6308     24.8271      0.2643
   483.2604     59.0337    121.1576      9.3651  31433.1055    560.4927     69.8711      0.1622  32993.8633     15.7115      0.5722     24.8336      0.2708
   483.4128     59.0337    123.1276      9.1074  31738.2813    560.5801     69.8711      0.1608  33004.7617     15.6995      0.4857     24.8774      0.2748
   483.5652     59.0337    123.1276      9.3256  31860.3516    560.6965     69.8807      0.1604  33007.8125     15.7034      0.4249     24.9446      0.2704
   483.7176     58.6069    123.1276     10.5130  31799.3164    560.7846     69.8599      0.1620  32995.6055     15.7606      0.3855     25.0201      0.2694
   483.8700     58.6069    121.1576     11.8761  31677.2461    560.8610     69.8711      0.1647  32974.2422     15.7490      0.3157     25.0199      0.2745
   484.0224     58.6069    121.1576     12.1142  31555.1758    560.9144     69.8711      0.1635  32983.3984     15.7238      0.3611     25.0747      0.2713
   484.1748     58.6069    120.1726     11.4933  32318.1152    560.9702     69.8642      0.1635  32983.3984     15.6720      0.4401     25.0893      0.2727
   484.3272     58.6069    120.1726     11.4966  31738.2813    561.0977     69.8711      0.1627  32989.5000     15.5556      0.5618     25.1459      0.2705
   484.4796     58.6069    121.1576     12.4730  31738.2813    561.2426     69.8711      0.1627  32989.5000     15.5496      0.6339     25.2018      0.2690
   484.6320     58.6069    120.1726     13.3036  31738.2813    561.4014     69.8711      0.1632  32986.1094     15.5585      0.5601     25.2596      0.2703
   484.7844     59.7317    120.1726     13.3193  31616.2109    561.5198     69.8711      0.1627  32989.5000     15.5129      0.4717     25.2604      0.2687
   484.9368     59.7317    120.1726     13.2477  31799.3164    561.5833     69.8711      0.1627  32989.5000     15.5590      0.4246     25.2835      0.2635
   485.0892     59.7317    120.1726     13.9827  31738.2813    561.6516     69.8711      0.1622  32993.8633     15.6678      0.4657     25.2856      0.2622
   485.2416     59.7317    120.1726     15.3243  31524.6582    561.7696     69.8807      0.1627  32989.5000     15.6982      0.4422     25.2013      0.2663
   485.3940     59.7317    122.1426     16.2345  31951.9043    561.9236     69.8711      0.1635  32983.3984     15.6877      0.4922     25.0512      0.2707
   485.5464     59.7317    122.1426     15.6929  32104.4922    561.9667     69.8711      0.1625  32991.5352     15.7025      0.4795     24.9849      0.2713
   485.6988     58.9788    123.1276     13.6601  31616.2109    562.0783     69.8550      0.1604  33007.8125     15.7836      0.4423     24.9796      0.2689
   485.8512     58.9788    121.1576     11.6340  31860.3516    562.1853     69.8872      0.1620  32995.6055     15.7206      0.4815     24.9979      0.2687
   486.0036     58.9788    121.1576     11.2517  31677.2461    562.3071     69.8807      0.1638  32981.1797     15.6998      0.5045     24.9627      0.2696
   486.1560     58.9788    120.1726     12.1857  31372.0703    562.3842     69.8807      0.1615  32999.6758     15.7012      0.5019     25.0543      0.2702
   486.3084     58.9788    120.1726     12.9038  31890.8691    562.5157     69.8711      0.1627  32989.5000     15.8573      0.4437     25.1957      0.2695
   486.4608     58.9788    121.1576     12.9275  31738.2813    562.6204     69.8550      0.1649  32972.5469     15.8932      0.3950     25.2211      0.2663
   486.6132     58.9483    123.1276     12.5442  31555.1758    562.6918     69.9193      0.1633  32985.1406     15.9408      0.3764     25.2540      0.2616
   486.7656     58.9483    123.1276     11.6069  31829.8340    562.7266     69.8711      0.1627  32989.5000     15.9649      0.4026     25.1464      0.2668
   486.9180     58.9483    122.1426      9.9991  31555.1758    562.8420     69.9193      0.1632  32986.1094     15.8988      0.4829     25.1818      0.2697
